"ride_id","rideable_type","started_at","ended_at","start_station_name","start_station_id","end_station_name","end_station_id","start_lat","start_lng","end_lat","end_lng","member_casual"
"011C1903BF4E2E28","classic_bike","2023-09-23 00:27:50","2023-09-23 00:33:27","Halsted St & Wrightwood Ave","TA1309000061","Sheffield Ave & Wellington Ave","TA1307000052",41.929143,-87.649077,41.9362534831413,-87.65266209840775,"member"
"87DB80E048A1BF9F","classic_bike","2023-09-02 09:26:43","2023-09-02 09:38:19","Clark St & Drummond Pl","TA1307000142","Racine Ave & Fullerton Ave","TA1306000026",41.931248,-87.644336,41.925566,-87.658416,"member"
"7C2EB7AF669066E3","electric_bike","2023-09-25 18:30:11","2023-09-25 18:41:39","Financial Pl & Ida B Wells Dr","SL-010","Racine Ave & 15th St","13304",41.875060833333336,-87.63313533333333,41.861267,-87.656625,"member"
"57D197B010269CE3","classic_bike","2023-09-13 15:30:49","2023-09-13 15:39:18","Clark St & Drummond Pl","TA1307000142","Racine Ave & Belmont Ave","TA1308000019",41.931248,-87.644336,41.939743,-87.658865,"member"
"8A2CEA7C8C8074D8","classic_bike","2023-09-18 15:58:58","2023-09-18 16:05:04","Halsted St & Wrightwood Ave","TA1309000061","Racine Ave & Fullerton Ave","TA1306000026",41.929143,-87.649077,41.925566,-87.658416,"member"
"03F7044D1304CD58","electric_bike","2023-09-15 20:19:25","2023-09-15 20:30:27","Southport Ave & Wrightwood Ave","TA1307000113",,,41.928835988,-87.663869619,41.9,-87.64,"member"
"672503E0FC0835EC","electric_bike","2023-09-27 16:52:18","2023-09-27 17:03:22","Kedzie Ave & Milwaukee Ave","13085",,,41.9295605,-87.70795733333334,41.93,-87.66,"member"
"1D806492F95973AC","electric_bike","2023-09-17 11:07:05","2023-09-17 11:13:39","Jeffery Blvd & 71st St","KA1503000018",,,41.766586065,-87.576445937,41.77,-87.57,"member"
"40D9EF382CC6C53D","classic_bike","2023-09-17 11:58:50","2023-09-17 12:08:36","Kedzie Ave & Milwaukee Ave","13085","California Ave & Milwaukee Ave","13084",41.929567,-87.707857,41.922695,-87.697153,"member"
"C60CE661AF7ECC93","electric_bike","2023-09-07 20:52:43","2023-09-07 21:06:51","Southport Ave & Wrightwood Ave","TA1307000113",,,41.92881583333333,-87.663908,41.9,-87.63,"member"
"3812B98E9406040E","classic_bike","2023-09-12 16:01:28","2023-09-12 16:17:47","Financial Pl & Ida B Wells Dr","SL-010","Adler Planetarium","13431",41.8750236280333,-87.6330940425396,41.866095,-87.607267,"member"
"EBA56298CB3C803F","classic_bike","2023-09-24 13:17:23","2023-09-24 13:50:43","Clark St & Schreiber Ave","KA1504000156","Oakley Ave & Touhy Ave","RP-004",41.999897,-87.670073,42.012342,-87.688243,"member"
"C6BD5AF648F11D11","electric_bike","2023-09-28 18:09:40","2023-09-28 18:15:04","Halsted St & Wrightwood Ave","TA1309000061","Halsted St & Roscoe St","TA1309000025",41.929192666666665,-87.64914316666666,41.94367,-87.64895,"member"
"585C82FA2E006DE9","classic_bike","2023-09-22 12:30:41","2023-09-22 12:42:21","Halsted St & Wrightwood Ave","TA1309000061","Halsted St & Roscoe St","TA1309000025",41.929143,-87.649077,41.94367,-87.64895,"member"
"95E72C49D692F822","classic_bike","2023-09-07 16:28:17","2023-09-07 16:31:25","Clark St & Drummond Pl","TA1307000142","Clark St & Wellington Ave","TA1307000136",41.931248,-87.644336,41.9364968219,-87.6475386582,"member"
"26094B920577B434","classic_bike","2023-09-04 16:53:28","2023-09-04 16:56:33","Clark St & Drummond Pl","TA1307000142","Clark St & Wellington Ave","TA1307000136",41.931248,-87.644336,41.9364968219,-87.6475386582,"member"
"A13DECC07C318A6F","classic_bike","2023-09-14 10:37:54","2023-09-14 10:40:16","Clark St & Drummond Pl","TA1307000142","Clark St & Wellington Ave","TA1307000136",41.931248,-87.644336,41.9364968219,-87.6475386582,"member"
"BE665598CC823457","electric_bike","2023-09-09 22:42:44","2023-09-09 22:49:49","Halsted St & Wrightwood Ave","TA1309000061","Lincoln Ave & Addison St","TA1309000050",41.9291665,-87.649153,41.946176,-87.673308,"member"
"34AB2700E7062615","classic_bike","2023-09-30 14:04:04","2023-09-30 14:04:33","Wabash Ave & Grand Ave","TA1307000117","Wabash Ave & Grand Ave","TA1307000117",41.891466,-87.626761,41.891466,-87.626761,"member"
"CAE833F56B978BB5","classic_bike","2023-09-30 14:08:57","2023-09-30 14:09:00","Wabash Ave & Grand Ave","TA1307000117","Wabash Ave & Grand Ave","TA1307000117",41.891466,-87.626761,41.891466,-87.626761,"member"
"523ADD8118978D3A","electric_bike","2023-09-04 23:36:48","2023-09-04 23:48:45","Elizabeth St & Randolph St","23001","Blue Island Ave & 18th St","13135",41.88432783333333,-87.65896966666666,41.857556,-87.661535,"casual"
"6C5287A284CDD8CB","classic_bike","2023-09-26 20:52:21","2023-09-26 21:00:42","Southport Ave & Wrightwood Ave","TA1307000113","Clark St & Wrightwood Ave","TA1305000014",41.928773,-87.663913,41.929546,-87.643118,"casual"
"928A1D2220881ADF","classic_bike","2023-09-26 18:21:34","2023-09-26 18:38:07","Lincoln Ave & Roscoe St*","chargingstx5","Clarendon Ave & Junior Ter","13389",41.9433502470174,-87.67066776752472,41.961004,-87.649603,"member"
"889F2926F7CE3A9E","electric_bike","2023-09-02 13:06:20","2023-09-02 13:16:08","Desplaines St & Randolph St","15535","Wells St & Elm St","KA1504000135",41.883569333333334,-87.64419883333333,41.903222,-87.634324,"member"
"600227F410DF602A","classic_bike","2023-09-18 18:09:04","2023-09-18 18:14:44","Austin Blvd & Lake St","16906","Austin Blvd & Madison St","16918",41.88794379427211,-87.77427345514297,41.880281,-87.774453,"member"
"DE4241E63009F4CB","classic_bike","2023-09-07 17:37:02","2023-09-07 17:46:00","Loomis St & Lexington St","13332","Canal St & Jackson Blvd","13138",41.87222873224032,-87.66136385500431,41.877245,-87.639366,"member"
"CC2CE8E59913F41E","classic_bike","2023-09-23 16:03:52","2023-09-23 18:13:09","Broadway & Wilson Ave","13074","Broadway & Wilson Ave","13074",41.965221,-87.658139,41.965221,-87.658139,"casual"
"9A044F4F6D84F0F4","classic_bike","2023-09-25 17:26:09","2023-09-25 17:32:11","Halsted St & Maxwell St","TA1309000001","Halsted St & Maxwell St","TA1309000001",41.864883,-87.647071,41.864883,-87.647071,"member"
"84C955A6010005F9","electric_bike","2023-09-04 20:26:38","2023-09-04 20:43:28","Kedzie Ave & Milwaukee Ave","13085","Kedzie Ave & Milwaukee Ave","13085",41.92967483333334,-87.70808466666666,41.929567,-87.707857,"casual"
"9047EE97561B54AA","electric_bike","2023-09-10 18:40:10","2023-09-10 18:40:57","Southport Ave & Wrightwood Ave","TA1307000113","Southport Ave & Wrightwood Ave","TA1307000113",41.9288325,-87.66387683333333,41.928773,-87.663913,"member"
"C06D2A5FB2FF26BD","classic_bike","2023-09-27 00:11:41","2023-09-27 00:22:02","Jeffery Blvd & 71st St","KA1503000018","Jeffery Blvd & 71st St","KA1503000018",41.76663823695,-87.5764501141,41.76663823695,-87.5764501141,"casual"
"C1BF8FE049907DA2","classic_bike","2023-09-26 18:38:32","2023-09-26 19:20:49","Lakefront Trail & Bryn Mawr Ave","15576","Lakefront Trail & Bryn Mawr Ave","15576",41.98404411519213,-87.65228122472763,41.98404411519213,-87.65228122472763,"member"
"ACAD5971E43E8924","classic_bike","2023-09-26 17:57:20","2023-09-26 18:19:11","Franklin St & Chicago Ave","13017","Michigan Ave & Washington St","13001",41.896746973093805,-87.63566762208939,41.8839840647265,-87.6246839761734,"casual"
"26F6AA8AD3210CB8","electric_bike","2023-09-10 12:20:18","2023-09-10 12:22:02","Canal St & Taylor St","15550","Canal St & Taylor St","15550",41.87018233333333,-87.639453,41.870257,-87.639474,"member"
"89F6E18562FAEDE4","classic_bike","2023-09-08 21:53:49","2023-09-08 21:59:59","Southport Ave & Wrightwood Ave","TA1307000113","Southport Ave & Belmont Ave","13229",41.928773,-87.663913,41.93947775040509,-87.6637476682663,"member"
"6AA865F1E6DB91DE","classic_bike","2023-09-05 17:04:44","2023-09-05 17:32:37","Franklin St & Monroe St","TA1309000007","Broadway & Belmont Ave","13277",41.880317,-87.635185,41.940106,-87.645451,"member"
"9E7DFC11B33E6F1E","electric_bike","2023-09-17 13:01:25","2023-09-17 13:12:36","Dearborn Pkwy & Delaware Pl","TA1307000128","Morgan St & Lake St*","chargingstx4",41.898961306,-87.629931331,41.88549170626906,-87.65228927135468,"member"
"1B83E951387332BA","electric_bike","2023-09-05 15:08:45","2023-09-05 15:11:24","Kedzie Ave & Milwaukee Ave","13085","Central Park Ave & Elbridge Ave","15644",41.9296005,-87.70785333333333,41.93533728263,-87.7168892935,"casual"
"D109587CE543B32F","electric_bike","2023-09-01 15:07:21","2023-09-01 15:14:12","Elizabeth St & Randolph St","23001","Franklin St & Lake St","TA1307000111",41.8843695,-87.65894266666666,41.885837,-87.6355,"member"
"D6D046590D5ABBDA","electric_bike","2023-09-05 19:36:12","2023-09-05 19:41:13","Desplaines St & Kinzie St","TA1306000003","Ogden Ave & Race Ave","13194",41.88859033333333,-87.64438633333333,41.891795,-87.658751,"member"
"0778370AFC57DAD6","classic_bike","2023-09-13 17:07:59","2023-09-13 17:16:32","Clark St & Schreiber Ave","KA1504000156","Broadway & Granville Ave","15571",41.999897,-87.670073,41.9947796884,-87.6602845349,"member"
"88B4F4D64DAB37F5","electric_bike","2023-09-09 17:51:47","2023-09-09 18:07:13","Desplaines St & Randolph St","15535","Wolcott Ave & Polk St","TA1309000064",41.883535333333334,-87.6441465,41.871262,-87.673688,"member"
"197C6C2B703BD082","classic_bike","2023-09-28 08:29:01","2023-09-28 08:33:17","Financial Pl & Ida B Wells Dr","SL-010","Franklin St & Monroe St","TA1309000007",41.8750236280333,-87.6330940425396,41.880317,-87.635185,"member"
"4C3183FD4991315F","classic_bike","2023-09-26 17:25:42","2023-09-26 17:33:55","Canal St & Jackson Blvd","13138","Green St & Madison St","TA1307000120",41.877245,-87.639366,41.881859328038225,-87.64926373958588,"member"
"49D36EE08D618253","electric_bike","2023-09-01 17:57:54","2023-09-01 18:12:18","Canal St & Jackson Blvd","13138","Ashland Ave & Blackhawk St","13224",41.877483845,-87.6398983,41.907066,-87.667252,"member"
"E303B69F1D32FB7D","classic_bike","2023-09-28 16:57:45","2023-09-28 17:00:12","Canal St & Jackson Blvd","13138","Clinton St & Madison St","TA1305000032",41.877245,-87.639366,41.882751965685614,-87.64119029045105,"member"
"B5DC5C0CDE57182D","electric_bike","2023-09-28 18:01:05","2023-09-28 18:21:02","Halsted St & 37th St","TA1307000161","Wentworth Ave & 33rd St","15445",41.827025414,-87.645759583,41.83452988563,-87.6318229814,"member"
"ADDFEF61DCC2E2CB","classic_bike","2023-09-20 21:20:34","2023-09-20 21:38:27","Desplaines St & Kinzie St","TA1306000003","Ashland Ave & Augusta Blvd","13248",41.888716036,-87.6444478533,41.899643,-87.6677,"member"
"32DCFF857AD74ACD","classic_bike","2023-09-20 14:24:39","2023-09-20 14:32:29","Dearborn St & Van Buren St","624","Indiana Ave & Roosevelt Rd","SL-005",41.876268,-87.629155,41.867888,-87.623041,"member"
"848A31BF62FB8D17","classic_bike","2023-09-12 17:23:05","2023-09-12 17:24:07","Dearborn St & Van Buren St","624","Dearborn St & Van Buren St","624",41.876268,-87.629155,41.876268,-87.629155,"member"
"10DACF64475D292F","classic_bike","2023-09-04 09:46:32","2023-09-04 10:29:02","Clybourn Ave & Division St","TA1307000115","Burnham Harbor","15545",41.904613,-87.640552,41.85741178707404,-87.61379152536392,"member"
"74F0F831741714BF","electric_bike","2023-09-26 17:46:53","2023-09-26 17:51:33","Clybourn Ave & Division St","TA1307000115","Sheffield Ave & Willow St","TA1306000032",41.90454883333334,-87.64054866666666,41.913688,-87.652855,"member"
"B5B078D3245F8039","classic_bike","2023-09-09 10:16:17","2023-09-09 10:25:18","Dearborn Pkwy & Delaware Pl","TA1307000128","Halsted St & Clybourn Ave","331",41.898969,-87.629912,41.909668,-87.648128,"member"
"8383584432ACA198","classic_bike","2023-09-15 20:36:31","2023-09-15 20:44:40","Orleans St & Chestnut St (NEXT Apts)","620","Desplaines St & Kinzie St","TA1306000003",41.898203,-87.637536,41.888716036,-87.6444478533,"member"
"C65B77828093B095","electric_bike","2023-09-12 17:32:43","2023-09-12 17:48:44","Southport Ave & Wrightwood Ave","TA1307000113","DuSable Lake Shore Dr & North Blvd","LF-005",41.928733333333334,-87.66388316666666,41.911722,-87.626804,"member"
"49AC325AB8B0C768","electric_bike","2023-09-12 19:39:36","2023-09-12 19:52:33","Elizabeth St & Randolph St","23001","Damen Ave & Grand Ave","TA1308000006",41.884377,-87.6590255,41.892394452962705,-87.67688512802124,"member"
"655AD27227603494","classic_bike","2023-09-06 17:02:01","2023-09-06 17:19:33","Canal St & Jackson Blvd","13138","Wells St & Evergreen Ave","TA1308000049",41.877245,-87.639366,41.906724,-87.63483,"member"
"13E800941F59D7C2","classic_bike","2023-09-12 18:37:29","2023-09-12 18:40:35","Clark St & Newport St","632","Clark St & Grace St","TA1307000127",41.94454,-87.654678,41.95078,-87.659172,"member"
"32FE739AD5EB7D2D","classic_bike","2023-09-09 10:47:03","2023-09-09 10:56:28","Broadway & Wilson Ave","13074","Broadway & Berwyn Ave","13109",41.965221,-87.658139,41.978353,-87.659753,"member"
"2E70FC7B2E82EDB5","classic_bike","2023-09-04 11:48:09","2023-09-04 11:54:46","Sheridan Rd & Argyle St","13059","Clarendon Ave & Gordon Ter","13379",41.97328682025979,-87.65475958585739,41.95786652415174,-87.64950513839722,"member"
"8C259A54B293465D","electric_bike","2023-09-21 13:08:00","2023-09-21 13:19:30","Dearborn Pkwy & Delaware Pl","TA1307000128","N Carpenter St & W Lake St","20251.0",41.899000883,-87.629954457,41.885586,-87.6531893,"member"
"E2F958894412A50A","classic_bike","2023-09-25 15:39:35","2023-09-25 15:45:22","Canal St & Jackson Blvd","13138","900 W Harrison St","13028",41.877245,-87.639366,41.874754,-87.649807,"member"
"955E5F3AF0846DD3","classic_bike","2023-09-21 14:51:33","2023-09-21 14:56:43","Cottage Grove Ave & 63rd St","KA1503000054","Ellis Ave & 60th St","KA1503000014",41.78053094070882,-87.6059702038765,41.78509714636,-87.6010727606,"member"
"E280F7BA3A113D0B","electric_bike","2023-09-25 08:13:27","2023-09-25 08:19:07","Wabash Ave & Adams St","KA1503000015","LaSalle St & Illinois St","13430",41.87960875,-87.625794649,41.890762,-87.631697,"member"
"3EA56ECDAB197E11","electric_bike","2023-09-20 21:47:46","2023-09-20 22:09:34","Clark St & Newport St","632","Michigan Ave & Oak St","13042",41.94445066666667,-87.65527383333334,41.90096039,-87.62377664,"casual"
"B214DDB6815FAEA9","classic_bike","2023-09-21 06:48:36","2023-09-21 06:51:48","Clark St & Newport St","632","Sheridan Rd & Irving Park Rd","13063",41.94454,-87.654678,41.954245,-87.654406,"casual"
"7A2124440687AF5C","classic_bike","2023-09-06 15:40:22","2023-09-06 15:59:03","Canal St & Jackson Blvd","13138","State St & Chicago Ave","21544",41.877245,-87.639366,41.89661720040753,-87.62857854366302,"member"
"35D0066CFAE19CCE","electric_bike","2023-09-01 15:27:59","2023-09-01 15:38:45","Canal St & Jackson Blvd","13138","Shields Ave & 28th Pl","15443",41.877509236,-87.639424562,41.842733,-87.635491,"member"
"794FC2B649371039","electric_bike","2023-09-13 08:13:28","2023-09-13 08:42:50","Dearborn Pkwy & Delaware Pl","TA1307000128","McCormick Place","TA1305000004",41.89889933333333,-87.62978166666667,41.8513751729,-87.6188346489,"casual"
"3E291D445F980C7F","classic_bike","2023-09-19 07:30:06","2023-09-19 07:45:12","Clark St & Chicago Ave","13303","Halsted St & Fulton St","23003",41.89675,-87.63089,41.886871,-87.648089,"member"
"93A3BF42D0B3F7A1","classic_bike","2023-09-20 13:35:12","2023-09-20 13:45:14","Ellis Ave & 55th St","KA1504000076","Ellis Ave & 55th St","KA1504000076",41.79430062054,-87.6014497734,41.79430062054,-87.6014497734,"member"
"51BB0D36AEB438F3","classic_bike","2023-09-03 08:40:21","2023-09-03 08:43:08","Clark St & Chicago Ave","13303","Clark St & Chicago Ave","13303",41.89675,-87.63089,41.89675,-87.63089,"member"
"4BC48E911EAFFC1F","classic_bike","2023-09-21 13:12:17","2023-09-21 13:20:33","Greenwood Ave & 47th St","TA1308000002","Ellis Ave & 55th St","KA1504000076",41.809835,-87.599383,41.79430062054,-87.6014497734,"member"
"F2BAD4F61459CD0E","classic_bike","2023-09-04 07:54:33","2023-09-04 08:03:28","Orleans St & Chestnut St (NEXT Apts)","620","McClurg Ct & Erie St","KA1503000041",41.898203,-87.637536,41.894503,-87.617854,"member"
"3AE1AA7AFBBA72C3","electric_bike","2023-09-20 13:08:12","2023-09-20 13:10:31","Christiana Ave & Lawrence Ave","15615","Kedzie Ave & Leland Ave","KA1504000126",41.968346833333335,-87.71178383333333,41.96668636205,-87.7080519806,"casual"
"9B249F6FF5A51AC3","electric_bike","2023-09-06 23:40:26","2023-09-06 23:54:48","Sheridan Rd & Lawrence Ave","TA1309000041","Public Rack - Bernard St & Foster Ave","1133.0",41.969507217,-87.654654145,41.9756353,-87.7126762,"member"
"2EE6594E7C5A3C08","electric_bike","2023-09-29 15:49:58","2023-09-29 15:55:35","N Carpenter St & W Lake St","20251.0","Clinton St & Washington Blvd","WL-012",41.885596666666665,-87.65307416666667,41.88338,-87.64117,"member"
"A8F47CBBB8CAF32F","electric_bike","2023-09-21 22:31:47","2023-09-21 22:45:45","Elston Ave & Wabansia Ave","TA1309000032","Clinton St & Washington Blvd","WL-012",41.912886,-87.6642845,41.88338,-87.64117,"member"
"244CD89D1B188668","classic_bike","2023-09-15 13:55:16","2023-09-15 14:09:01","Wabash Ave & 16th St","SL-012","State St & 35th St","TA1307000129",41.860384,-87.625813,41.8310363140161,-87.62679755687714,"member"
"CD98638B8F756FAA","classic_bike","2023-09-13 20:36:41","2023-09-13 21:10:07","Wentworth Ave & 35th St","KA1503000005","Western Ave & 24th St","TA1309000003",41.830777,-87.632504,41.84847,-87.685109,"member"
"2043738A4D56CEA6","classic_bike","2023-09-16 21:35:20","2023-09-16 21:38:42","Sheffield Ave & Fullerton Ave","TA1306000016","Lincoln Ave & Fullerton Ave","TA1309000058",41.9256018819,-87.6537080423,41.924161029067626,-87.64638036489487,"member"
"E718348B35A9B3BA","classic_bike","2023-09-28 21:43:08","2023-09-28 22:11:35","Sheridan Rd & Argyle St","13059","Greenview Ave & Jarvis Ave","520",41.97328682025979,-87.65475958585739,42.015962,-87.66857,"member"
"556A0125EEDCC037","electric_bike","2023-09-26 23:18:56","2023-09-26 23:22:49","W Armitage Ave & N Sheffield Ave","20254.0","Dayton St & North Ave","13058",41.917912841,-87.65340507,41.9105780349,-87.6494219288,"member"
"23FE7F717459ED60","classic_bike","2023-09-25 20:06:36","2023-09-25 20:09:47","Calumet Ave & 33rd St","13217","Indiana Ave & 31st St","TA1308000036",41.8349,-87.61793,41.838842,-87.621857,"member"
"CAA36325C07C50DE","classic_bike","2023-09-29 22:21:55","2023-09-29 22:27:49","Desplaines St & Kinzie St","TA1306000003","Wells St & Hubbard St","TA1307000151",41.888716036,-87.6444478533,41.889906,-87.634266,"member"
"CF58D7B6EF0378DA","classic_bike","2023-09-01 12:34:04","2023-09-01 13:19:51","Clybourn Ave & Division St","TA1307000115","Wells St & 19th St","SL-006",41.904613,-87.640552,41.856802,-87.633879,"casual"
"402C5C23D4945729","electric_bike","2023-09-20 06:21:38","2023-09-20 06:28:11","Clybourn Ave & Division St","TA1307000115","Rush St & Superior St","15530",41.9046215,-87.6405795,41.89576474564,-87.6259080327,"member"
"9B87DA5D0324F18D","classic_bike","2023-09-20 19:28:06","2023-09-20 19:44:19","Sheffield Ave & Fullerton Ave","TA1306000016","Pine Grove Ave & Irving Park Rd","TA1308000022",41.9256018819,-87.6537080423,41.954383,-87.648043,"member"
"CAE938DE40182594","classic_bike","2023-09-26 13:19:41","2023-09-26 13:25:02","Elizabeth St & Randolph St","23001","Milwaukee Ave & Grand Ave","13033",41.884336,-87.658902,41.891578,-87.648384,"member"
"94BDCC532A294069","classic_bike","2023-09-29 16:00:29","2023-09-29 16:06:13","Elizabeth St & Randolph St","23001","Milwaukee Ave & Grand Ave","13033",41.884336,-87.658902,41.891578,-87.648384,"member"
"5073246658755EA3","electric_bike","2023-09-21 18:06:01","2023-09-21 18:10:50","Elizabeth St & Randolph St","23001","Milwaukee Ave & Grand Ave","13033",41.884389043,-87.659008145,41.891578,-87.648384,"member"
"A1F7254D9360CD3D","classic_bike","2023-09-06 09:08:22","2023-09-06 09:17:42","Desplaines St & Kinzie St","TA1306000003","Larrabee St & Kingsbury St","TA1306000009",41.888716036,-87.6444478533,41.897764,-87.642884,"member"
"67A181482D03940C","classic_bike","2023-09-13 08:06:20","2023-09-13 08:15:06","Desplaines St & Kinzie St","TA1306000003","Canal St & Monroe St","13056",41.888716036,-87.6444478533,41.88169,-87.63953,"member"
"6DE3388C3AA3B91C","electric_bike","2023-09-13 15:22:04","2023-09-13 15:34:06","Lincoln Ave & Roscoe St*","chargingstx5","Damen Ave & Pierce Ave","TA1305000041",41.9434305,-87.67068383333333,41.9093960065,-87.6776919292,"member"
"B91E2CC7B69DB731","classic_bike","2023-09-09 18:21:15","2023-09-09 18:46:49","Ogden Ave & Roosevelt Rd","KA1504000101","Damen Ave & Pierce Ave","TA1305000041",41.86650148316,-87.68469707,41.9093960065,-87.6776919292,"member"
"2B2CE953C0A60348","classic_bike","2023-09-09 17:06:50","2023-09-09 17:15:39","Ashland Ave & Division St","13061","Damen Ave & Pierce Ave","TA1305000041",41.90345,-87.667747,41.9093960065,-87.6776919292,"member"
"7BCA5467246FE0F4","classic_bike","2023-09-21 16:13:04","2023-09-21 16:37:49","Clinton St & Lake St","13021","Damen Ave & Pierce Ave","TA1305000041",41.885637,-87.641823,41.9093960065,-87.6776919292,"member"
"E97C19E3A12FE4B7","classic_bike","2023-09-01 07:28:50","2023-09-01 07:33:38","Clinton St & Lake St","13021","Milwaukee Ave & Grand Ave","13033",41.885637,-87.641823,41.891578,-87.648384,"member"
"D3A0C25958B88C5E","electric_bike","2023-09-18 08:29:59","2023-09-18 08:32:03","Franklin St & Chicago Ave","13017","Larrabee St & Kingsbury St","TA1306000009",41.89671766666667,-87.63592566666667,41.897764,-87.642884,"member"
"13129DCF8BF0BF0F","classic_bike","2023-09-07 11:00:48","2023-09-07 11:34:50","Dearborn St & Monroe St","TA1305000006","Damen Ave & Pierce Ave","TA1305000041",41.881319815,-87.6295209193,41.9093960065,-87.6776919292,"casual"
"2B64CC57D068808B","electric_bike","2023-09-28 08:26:19","2023-09-28 08:28:22","Franklin St & Chicago Ave","13017","Larrabee St & Kingsbury St","TA1306000009",41.8968865,-87.63577733333334,41.897764,-87.642884,"member"
"10D0BCC202A3B040","electric_bike","2023-09-20 07:45:26","2023-09-20 08:09:08","Larrabee St & Armitage Ave","TA1309000006","Larrabee St & Kingsbury St","TA1306000009",41.91815716666667,-87.643787,41.897764,-87.642884,"member"
"3586F784FF5810D9","electric_bike","2023-09-10 19:35:42","2023-09-10 20:00:31","Troy St & North Ave","15653","Damen Ave & Pierce Ave","TA1305000041",41.90980783333333,-87.70532,41.9093960065,-87.6776919292,"member"
"BF07B455DEFA1213","classic_bike","2023-09-12 16:41:59","2023-09-12 16:46:54","Wabash Ave & Adams St","KA1503000015","Canal St & Monroe St","13056",41.87947235235,-87.6256886059,41.88169,-87.63953,"member"
"BF6D786C03D7C271","classic_bike","2023-09-13 16:33:07","2023-09-13 16:37:58","Wabash Ave & Adams St","KA1503000015","Canal St & Monroe St","13056",41.87947235235,-87.6256886059,41.88169,-87.63953,"member"
"607679A7AAA4F752","electric_bike","2023-09-06 08:18:18","2023-09-06 08:25:15","Winchester Ave & Elston Ave","KA1504000140","Damen Ave & Pierce Ave","TA1305000041",41.923928022,-87.676359177,41.9093960065,-87.6776919292,"member"
"5C35695D014F15DF","classic_bike","2023-09-02 17:25:02","2023-09-02 17:45:52","Wells St & Elm St","KA1504000135","Milwaukee Ave & Grand Ave","13033",41.903222,-87.634324,41.891578,-87.648384,"member"
"B4AD56EF944FBDE4","electric_bike","2023-09-03 08:38:42","2023-09-03 08:43:53","Michigan Ave & Pearson St","13034","Larrabee St & Kingsbury St","TA1306000009",41.897193074,-87.623128653,41.897764,-87.642884,"member"
"32A1099C31658E0C","electric_bike","2023-09-22 08:35:26","2023-09-22 08:41:43","Western Ave & Fillmore St","644","Artesian Ave & Hubbard St","15664",41.868608475,-87.6862396,41.8895,-87.688257,"member"
"9541F0EE067B39F5","electric_bike","2023-09-03 21:36:43","2023-09-03 21:41:02","N Green St & W Lake St","20246.0","Milwaukee Ave & Grand Ave","13033",41.88564983333333,-87.64841183333333,41.891578,-87.648384,"member"
"2C57EC4F5F673E27","electric_bike","2023-09-14 08:08:27","2023-09-14 08:11:25","Daley Center Plaza","TA1306000010","Canal St & Monroe St","13056",41.884139895,-87.62938869,41.88169,-87.63953,"member"
"3763221D1AB7FA3A","classic_bike","2023-09-04 20:28:52","2023-09-04 20:34:34","Southport Ave & Roscoe St","13071","Racine Ave & Belmont Ave","TA1308000019",41.943739,-87.66402,41.939743,-87.658865,"member"
"8A8A64C0D950E94D","classic_bike","2023-09-22 23:35:48","2023-09-22 23:46:22","Lakeview Ave & Fullerton Pkwy","TA1309000019","Racine Ave & Belmont Ave","TA1308000019",41.925858,-87.638973,41.939743,-87.658865,"member"
"B5D99EFA9417DC4D","classic_bike","2023-09-26 05:52:47","2023-09-26 05:58:27","Lakeview Ave & Fullerton Pkwy","TA1309000019","Racine Ave & Fullerton Ave","TA1306000026",41.925858,-87.638973,41.925566,-87.658416,"casual"
"0476C2445A9FF111","classic_bike","2023-09-29 09:13:40","2023-09-29 09:15:42","Leavitt St & North Ave","TA1308000005","Damen Ave & Pierce Ave","TA1305000041",41.91050936666395,-87.6823890209198,41.9093960065,-87.6776919292,"member"
"74FCEC35FFFD60D3","classic_bike","2023-09-24 00:32:55","2023-09-24 00:34:43","Michigan Ave & 8th St","623","Michigan Ave & 8th St","623",41.872773,-87.623981,41.872773,-87.623981,"member"
"0852DA9511842337","classic_bike","2023-09-17 09:41:01","2023-09-17 09:45:41","University Ave & 59th St","22003","Woodlawn Ave & 55th St","TA1307000164",41.787878,-87.598906,41.795264,-87.596471,"member"
"CA0AAACE82B0DE86","classic_bike","2023-09-16 19:34:56","2023-09-16 19:39:58","University Ave & 59th St","22003","Woodlawn Ave & 55th St","TA1307000164",41.787878,-87.598906,41.795264,-87.596471,"member"
"F6D36861524FD6B0","electric_bike","2023-09-24 10:58:49","2023-09-24 11:04:35","Larrabee St & Kingsbury St","TA1306000009","Larrabee St & Kingsbury St","TA1306000009",41.897686666666665,-87.6431305,41.897764,-87.642884,"casual"
"38AD185BAFE53CBD","classic_bike","2023-09-24 15:54:20","2023-09-24 15:57:55","Racine Ave & Belmont Ave","TA1308000019","Racine Ave & Belmont Ave","TA1308000019",41.939743,-87.658865,41.939743,-87.658865,"casual"
"14BF143D1A882A43","classic_bike","2023-09-24 08:55:46","2023-09-24 10:08:33","Michigan Ave & 8th St","623","Michigan Ave & 8th St","623",41.872773,-87.623981,41.872773,-87.623981,"casual"
"92140B1061E9F9F2","classic_bike","2023-09-24 08:55:33","2023-09-24 10:08:35","Michigan Ave & 8th St","623","Michigan Ave & 8th St","623",41.872773,-87.623981,41.872773,-87.623981,"casual"
"B009A3189D64B4B2","electric_bike","2023-09-23 22:51:45","2023-09-23 22:52:30","Milwaukee Ave & Grand Ave","13033","Milwaukee Ave & Grand Ave","13033",41.89163883333333,-87.64824966666667,41.891578,-87.648384,"casual"
"D044E5C74711981A","classic_bike","2023-09-20 17:31:58","2023-09-20 17:44:07","Woodlawn Ave & 55th St","TA1307000164","Woodlawn Ave & 55th St","TA1307000164",41.795264,-87.596471,41.795264,-87.596471,"casual"
"95FEAFF2EB79135B","electric_bike","2023-09-20 16:10:44","2023-09-20 16:22:36","Woodlawn Ave & 55th St","TA1307000164","Woodlawn Ave & 55th St","TA1307000164",41.795271158,-87.596523881,41.795264,-87.596471,"casual"
"38909943D20F1BBF","classic_bike","2023-09-20 12:20:44","2023-09-20 12:26:42","Milwaukee Ave & Grand Ave","13033","Milwaukee Ave & Grand Ave","13033",41.891578,-87.648384,41.891578,-87.648384,"casual"
"CFCA70DBDD6B0F4D","classic_bike","2023-09-15 23:44:21","2023-09-15 23:51:56","Larrabee St & Kingsbury St","TA1306000009","Milwaukee Ave & Grand Ave","13033",41.897764,-87.642884,41.891578,-87.648384,"casual"
"E4894731C9B4BDD6","classic_bike","2023-09-16 17:15:36","2023-09-16 17:32:23","Milwaukee Ave & Grand Ave","13033","Artesian Ave & Hubbard St","15664",41.891578,-87.648384,41.8895,-87.688257,"casual"
"C70E1285395625DB","classic_bike","2023-09-16 12:30:09","2023-09-16 12:48:27","Racine Ave & Belmont Ave","TA1308000019","Racine Ave & Belmont Ave","TA1308000019",41.939743,-87.658865,41.939743,-87.658865,"casual"
"3EBD28947AE18034","classic_bike","2023-09-16 12:35:46","2023-09-16 12:59:23","Damen Ave & Pierce Ave","TA1305000041","Damen Ave & Pierce Ave","TA1305000041",41.9093960065,-87.6776919292,41.9093960065,-87.6776919292,"casual"
"DBA360012D015990","electric_bike","2023-09-16 11:25:09","2023-09-16 11:29:26","Larrabee St & Kingsbury St","TA1306000009","Milwaukee Ave & Grand Ave","13033",41.89762483333333,-87.643282,41.891578,-87.648384,"casual"
"BA8F6CE62020EE41","classic_bike","2023-09-16 18:37:22","2023-09-16 18:37:31","Michigan Ave & 8th St","623","Michigan Ave & 8th St","623",41.872773,-87.623981,41.872773,-87.623981,"casual"
"E97FE2EAABD618E0","classic_bike","2023-09-28 17:54:30","2023-09-28 18:08:48","Racine Ave & Belmont Ave","TA1308000019","Racine Ave & Fullerton Ave","TA1306000026",41.939743,-87.658865,41.925566,-87.658416,"casual"
"36360DB137D5A7E9","electric_bike","2023-09-28 00:03:06","2023-09-28 00:09:27","Racine Ave & Belmont Ave","TA1308000019","Racine Ave & Fullerton Ave","TA1306000026",41.939660333333336,-87.65885633333333,41.925566,-87.658416,"casual"
"561F818A168DDC62","classic_bike","2023-09-09 12:57:05","2023-09-09 13:14:00","Michigan Ave & 8th St","623","Michigan Ave & 8th St","623",41.872773,-87.623981,41.872773,-87.623981,"casual"
"08D8B645D4279A30","classic_bike","2023-09-03 14:29:02","2023-09-03 14:30:07","Michigan Ave & 8th St","623","Michigan Ave & 8th St","623",41.872773,-87.623981,41.872773,-87.623981,"member"
"5DBEECA098AB044B","electric_bike","2023-09-29 08:21:15","2023-09-29 08:30:38","Milwaukee Ave & Grand Ave","13033","Damen Ave & Pierce Ave","TA1305000041",41.8915055,-87.6483925,41.9093960065,-87.6776919292,"member"
"987258F1EB4E818D","classic_bike","2023-09-21 16:43:27","2023-09-21 16:43:56","Canal St & Monroe St","13056","Canal St & Monroe St","13056",41.88169,-87.63953,41.88169,-87.63953,"member"
"38ED328EF361F0A8","classic_bike","2023-09-05 18:11:47","2023-09-05 18:21:20","Racine Ave & Fullerton Ave","TA1306000026","Racine Ave & Fullerton Ave","TA1306000026",41.925566,-87.658416,41.925566,-87.658416,"member"
"34184D85F2CA7BD0","electric_bike","2023-09-01 04:51:16","2023-09-01 04:55:14","Wells St & Polk St","SL-011","Canal St & Monroe St","13056",41.872807622,-87.63348937,41.88169,-87.63953,"member"
"27B8D77F9D485BEA","classic_bike","2023-09-25 08:29:04","2023-09-25 08:35:18","Wells St & Polk St","SL-011","Canal St & Monroe St","13056",41.872731542263075,-87.63351649045944,41.88169,-87.63953,"member"
"DC9A52BA97546056","electric_bike","2023-09-25 06:20:19","2023-09-25 06:23:57","Campbell Ave & Augusta Blvd","410","Artesian Ave & Hubbard St","15664",41.899633883999996,-87.689482331,41.8895,-87.688257,"casual"
"969EB154DA02A616","classic_bike","2023-09-03 15:23:49","2023-09-03 16:01:54","DuSable Lake Shore Dr & North Blvd","LF-005","Michigan Ave & 8th St","623",41.911722,-87.626804,41.872773,-87.623981,"casual"
"F9AE083A6A9DFC98","electric_bike","2023-09-13 04:48:50","2023-09-13 04:53:15","Damen Ave & Grand Ave","TA1308000006","Damen Ave & Pierce Ave","TA1305000041",41.892106771,-87.677152872,41.9093960065,-87.6776919292,"casual"
"4C4B0D41B3A261B0","electric_bike","2023-09-22 04:39:27","2023-09-22 04:43:39","Wells St & Polk St","SL-011","Canal St & Monroe St","13056",41.8725995,-87.63389533333333,41.88169,-87.63953,"member"
"BF6A6F4EFC1E675F","electric_bike","2023-09-05 07:59:51","2023-09-05 08:05:01","Damen Ave & Grand Ave","TA1308000006","Artesian Ave & Hubbard St","15664",41.89241116666667,-87.6769045,41.8895,-87.688257,"casual"
"D3A12E3E929E7D73","classic_bike","2023-09-04 17:35:28","2023-09-04 17:39:25","Michigan Ave & Jackson Blvd","TA1309000002","Michigan Ave & 8th St","623",41.878005,-87.624144,41.872773,-87.623981,"member"
"0814B264A6749642","classic_bike","2023-09-30 23:28:44","2023-09-30 23:32:25","Dearborn St & Van Buren St","624","Michigan Ave & 8th St","623",41.876268,-87.629155,41.872773,-87.623981,"member"
"2E5FE868CF951300","classic_bike","2023-09-21 11:40:03","2023-09-21 11:43:13","Clark St & Newport St","632","Racine Ave & Belmont Ave","TA1308000019",41.94454,-87.654678,41.939743,-87.658865,"member"
"EC9491E2F71EC8C7","classic_bike","2023-09-12 21:57:06","2023-09-12 22:02:22","Dearborn St & Van Buren St","624","Michigan Ave & 8th St","623",41.876268,-87.629155,41.872773,-87.623981,"member"
"581FA850A5055230","electric_bike","2023-09-19 08:30:36","2023-09-19 08:43:40","Southport Ave & Wellington Ave","TA1307000006","Larrabee St & Kingsbury St","TA1306000009",41.935644865,-87.663650274,41.897764,-87.642884,"member"
"239F42A928A33824","electric_bike","2023-09-20 16:36:53","2023-09-20 16:40:45","Southport Ave & Wellington Ave","TA1307000006","Racine Ave & Fullerton Ave","TA1306000026",41.935841799,-87.66362524,41.925566,-87.658416,"member"
"36CF20468A8BCEF5","electric_bike","2023-09-10 07:47:39","2023-09-10 07:55:29","Peoria St & Jackson Blvd","13158","Larrabee St & Kingsbury St","TA1306000009",41.87756066666667,-87.64946216666667,41.897764,-87.642884,"member"
"5DD96DA9C61CCE6F","classic_bike","2023-09-09 14:57:32","2023-09-09 15:08:10","Michigan Ave & Oak St","13042","Larrabee St & Kingsbury St","TA1306000009",41.90096039,-87.62377664,41.897764,-87.642884,"member"
"D8B1671DED975373","classic_bike","2023-09-12 07:53:20","2023-09-12 08:05:03","Noble St & Milwaukee Ave (Temp)","13290","Canal St & Monroe St","13056",41.89984,-87.661463,41.88169,-87.63953,"member"
"51FA57716DE7D94B","electric_bike","2023-09-27 21:50:08","2023-09-27 21:54:55","Sheridan Rd & Irving Park Rd","13063","Racine Ave & Belmont Ave","TA1308000019",41.95433883333333,-87.65442466666667,41.939743,-87.658865,"member"
"EEF084C272BB8F3F","classic_bike","2023-09-28 12:48:24","2023-09-28 13:39:13","Southport Ave & Belmont Ave","13229","Racine Ave & Fullerton Ave","TA1306000026",41.93947775040509,-87.6637476682663,41.925566,-87.658416,"member"
"2313099DC9CBBEE5","classic_bike","2023-09-09 11:36:01","2023-09-09 11:45:15","Clark St & Schiller St","TA1309000024","Larrabee St & Kingsbury St","TA1306000009",41.907993,-87.631501,41.897764,-87.642884,"member"
"412E9BA6E981E50D","classic_bike","2023-09-27 22:37:32","2023-09-27 22:42:45","Lincoln Ave & Fullerton Ave","TA1309000058","Racine Ave & Fullerton Ave","TA1306000026",41.924161029067626,-87.64638036489487,41.925566,-87.658416,"member"
"395D646CADAA9325","electric_bike","2023-09-13 13:33:52","2023-09-13 13:39:21","Damen Ave & Walnut (Lake) St","KA17018054","Artesian Ave & Hubbard St","15664",41.88593733333333,-87.67701966666667,41.8895,-87.688257,"casual"
"5BAB56F864F81D19","electric_bike","2023-09-16 16:58:48","2023-09-16 17:08:29","Lincoln Ave & Fullerton Ave","TA1309000058","Milwaukee Ave & Grand Ave","13033",41.92421783333333,-87.64636916666667,41.891578,-87.648384,"casual"
"0C7800161CC98222","classic_bike","2023-09-12 16:14:15","2023-09-12 16:20:00","Halsted St & Dickens Ave","13192","Racine Ave & Fullerton Ave","TA1306000026",41.919936,-87.64883,41.925566,-87.658416,"member"
"63162387C3933278","classic_bike","2023-09-02 13:31:15","2023-09-02 13:35:17","Lincoln Ave & Fullerton Ave","TA1309000058","Racine Ave & Fullerton Ave","TA1306000026",41.924161029067626,-87.64638036489487,41.925566,-87.658416,"member"
"E79702469D91AAF5","classic_bike","2023-09-25 07:19:28","2023-09-25 07:26:51","Dearborn St & Erie St","13045","Canal St & Monroe St","13056",41.893992,-87.629318,41.88169,-87.63953,"member"
"0A81422149EB3314","classic_bike","2023-09-13 16:58:10","2023-09-13 16:59:39","Larrabee St & Oak St","KA1504000116","Larrabee St & Kingsbury St","TA1306000009",41.90021949323,-87.6429854676,41.897764,-87.642884,"member"
"F921DB3847DCBB2D","classic_bike","2023-09-15 19:35:38","2023-09-15 20:09:13","Montrose Harbor","TA1308000012","Racine Ave & Fullerton Ave","TA1306000026",41.963982,-87.638181,41.925566,-87.658416,"member"
"EBF193425F8B8686","electric_bike","2023-09-14 09:13:30","2023-09-14 09:21:10","Clark St & Lake St","KA1503000012","Larrabee St & Kingsbury St","TA1306000009",41.885984898,-87.631806612,41.897764,-87.642884,"member"
"52C816CEF79E1042","electric_bike","2023-09-07 09:14:00","2023-09-07 09:20:39","Clark St & Lake St","KA1503000012","Larrabee St & Kingsbury St","TA1306000009",41.886144042,-87.63147366,41.897764,-87.642884,"member"
"215A8999575EC28C","electric_bike","2023-09-27 07:37:37","2023-09-27 07:49:22","Canal St & Jackson Blvd","13138","Larrabee St & Kingsbury St","TA1306000009",41.87739416666667,-87.63985033333333,41.897764,-87.642884,"member"
"DAE93205F613FA41","electric_bike","2023-09-14 18:20:31","2023-09-14 18:29:50","Canal St & Jackson Blvd","13138","Milwaukee Ave & Grand Ave","13033",41.877531052,-87.639541984,41.891578,-87.648384,"member"
"00A8EE50B4208563","classic_bike","2023-09-15 12:16:18","2023-09-15 12:30:16","Wolcott Ave & Polk St","TA1309000064","Artesian Ave & Hubbard St","15664",41.871262,-87.673688,41.8895,-87.688257,"member"
"443D389400650132","classic_bike","2023-09-22 17:50:17","2023-09-22 18:29:23","Western Ave & Division St","13241","Drake Ave & Addison St","KA1504000142",41.902893,-87.687275,41.947326,-87.717582,"member"
"893B91ECF1D83800","classic_bike","2023-09-26 16:09:26","2023-09-26 16:13:55","Damen Ave & Division St","13136","Damen Ave & Pierce Ave","TA1305000041",41.903266,-87.678435,41.9093960065,-87.6776919292,"member"
"678168E1FC741951","electric_bike","2023-09-06 15:56:33","2023-09-06 16:04:47","Carpenter St & Huron St","13196","Damen Ave & Pierce Ave","TA1305000041",41.894466,-87.65351733333333,41.9093960065,-87.6776919292,"member"
"A461AF389832A20C","electric_bike","2023-09-13 21:06:23","2023-09-13 21:29:26","Adler Planetarium","13431","Racine Ave & 15th St","13304",41.866148233,-87.607261539,41.861267,-87.656625,"member"
"53209E52A0B58F47","electric_bike","2023-09-13 08:57:00","2023-09-13 09:08:07","Stetson Ave & South Water St","TA1308000029","Larrabee St & Kingsbury St","TA1306000009",41.88656316666667,-87.6223425,41.897764,-87.642884,"member"
"34C2B3E8685647FA","electric_bike","2023-09-13 16:59:03","2023-09-13 17:11:24","N Carpenter St & W Lake St","20251.0","Artesian Ave & Hubbard St","15664",41.88551983333333,-87.65317816666666,41.8895,-87.688257,"member"
"42FE1B386D0EBC9A","classic_bike","2023-09-03 19:37:20","2023-09-03 19:45:18","Aberdeen St & Randolph St","18062","Milwaukee Ave & Grand Ave","13033",41.884114,-87.654264,41.891578,-87.648384,"casual"
"FE2EF18133891E4E","classic_bike","2023-09-02 10:56:36","2023-09-02 11:05:57","Larrabee St & Webster Ave","13193","Racine Ave & Fullerton Ave","TA1306000026",41.921822,-87.64414,41.925566,-87.658416,"casual"
"6D36EEC9FB72C3B0","classic_bike","2023-09-15 22:51:03","2023-09-15 23:13:36","Aberdeen St & Randolph St","18062","Damen Ave & Pierce Ave","TA1305000041",41.884114,-87.654264,41.9093960065,-87.6776919292,"casual"
"BFB2AA446BF17CEE","electric_bike","2023-09-28 09:09:58","2023-09-28 09:16:20","Aberdeen St & Randolph St","18062","Canal St & Monroe St","13056",41.884122372,-87.654285908,41.88169,-87.63953,"member"
"C12680973A8B1782","electric_bike","2023-09-12 09:27:57","2023-09-12 09:33:53","Aberdeen St & Randolph St","18062","Canal St & Monroe St","13056",41.88415966666667,-87.654365,41.88169,-87.63953,"member"
"F48920A0E386D918","classic_bike","2023-09-13 18:22:37","2023-09-13 18:27:05","Aberdeen St & Randolph St","18062","Milwaukee Ave & Grand Ave","13033",41.884114,-87.654264,41.891578,-87.648384,"member"
"3D5D2C49C183E76A","classic_bike","2023-09-12 10:05:39","2023-09-12 10:10:24","Kingsbury St & Kinzie St","KA1503000043","Canal St & Monroe St","13056",41.88917683258,-87.6385057718,41.88169,-87.63953,"member"
"AD4D7A5F2A4669FE","classic_bike","2023-09-09 20:38:09","2023-09-09 20:47:39","Larrabee St & Webster Ave","13193","Racine Ave & Fullerton Ave","TA1306000026",41.921822,-87.64414,41.925566,-87.658416,"member"
"3777E77DE1DC7EBA","classic_bike","2023-09-26 20:39:57","2023-09-26 20:48:29","Larrabee St & Webster Ave","13193","Racine Ave & Fullerton Ave","TA1306000026",41.921822,-87.64414,41.925566,-87.658416,"member"
"FE88B7B706594107","classic_bike","2023-09-01 20:00:36","2023-09-01 20:09:09","Larrabee St & Webster Ave","13193","Racine Ave & Fullerton Ave","TA1306000026",41.921822,-87.64414,41.925566,-87.658416,"member"
"53BA437C0744B2FC","electric_bike","2023-09-16 16:53:40","2023-09-16 17:03:12",,,"Damen Ave & Pierce Ave","TA1305000041",41.92,-87.65,41.9093960065,-87.6776919292,"member"
"2FF6A0C21DA1340D","electric_bike","2023-09-17 16:35:53","2023-09-17 16:47:48",,,"Damen Ave & Pierce Ave","TA1305000041",41.93,-87.66,41.9093960065,-87.6776919292,"member"
"98F0AA2E7E2FC359","electric_bike","2023-09-05 06:12:17","2023-09-05 06:18:59",,,"Milwaukee Ave & Grand Ave","13033",41.9,-87.67,41.891578,-87.648384,"member"
"3BFF876768EFD425","electric_bike","2023-09-13 11:08:29","2023-09-13 11:31:16",,,"Racine Ave & 15th St","13304",41.86,-87.67,41.861267,-87.656625,"member"
"CFDD13B6AD6BD75D","classic_bike","2023-09-23 02:38:37","2023-09-23 02:59:21","Wabash Ave & Grand Ave","TA1307000117","Clark St & Wrightwood Ave","TA1305000014",41.891466,-87.626761,41.929546,-87.643118,"casual"
"734F7EBAC94528A6","classic_bike","2023-09-03 13:04:46","2023-09-03 13:36:54","Michigan Ave & Oak St","13042","May St & Taylor St","13160",41.90096039,-87.62377664,41.8694821,-87.6554864,"member"
"3F0E368BD02133FF","classic_bike","2023-09-30 13:23:28","2023-09-30 13:28:31","Broadway & Barry Ave","13137","Clark St & Wrightwood Ave","TA1305000014",41.93758231600629,-87.6440978050232,41.929546,-87.643118,"member"
"019351EC0FCFEC13","classic_bike","2023-09-06 18:49:50","2023-09-06 19:07:17","Sheridan Rd & Irving Park Rd","13063","Clark St & Winnemac Ave","TA1309000035",41.954245,-87.654406,41.973347640473044,-87.6678554713726,"member"
"BD20D6092CD30554","classic_bike","2023-09-14 20:51:35","2023-09-14 21:04:32","Orleans St & Elm St","TA1306000006","Ashland Ave & Division St","13061",41.902924,-87.637715,41.90345,-87.667747,"member"
"7234906ABC181906","electric_bike","2023-09-15 19:38:28","2023-09-15 20:07:26","Michigan Ave & Oak St","13042","Clark St & Winnemac Ave","TA1309000035",41.900993166666666,-87.62375966666667,41.973347640473044,-87.6678554713726,"member"
"5701664CBF8BA25D","classic_bike","2023-09-23 18:21:09","2023-09-23 18:40:53","Michigan Ave & Madison St","13036","Desplaines St & Jackson Blvd","15539",41.882134,-87.625125,41.87811890091227,-87.64394760131836,"casual"
"9508CF0185DE92E2","electric_bike","2023-09-13 08:05:28","2023-09-13 08:14:38","Halsted St & Maxwell St","TA1309000001","Wood St & Taylor St (Temp)","13285",41.864862323,-87.647039652,41.869265218438194,-87.67373085021973,"casual"
"5BEF7CA11DC55232","classic_bike","2023-09-30 22:55:23","2023-09-30 23:17:24","Wood St & Milwaukee Ave","13221","McClurg Ct & Ohio St","TA1306000029",41.907655,-87.672552,41.892592119709725,-87.61728912591934,"member"
"19018EE9DC1CBDC2","classic_bike","2023-09-18 16:22:32","2023-09-18 16:33:54","Dearborn St & Monroe St","TA1305000006","McClurg Ct & Ohio St","TA1306000029",41.881319815,-87.6295209193,41.892592119709725,-87.61728912591934,"member"
"7C5AB1FB0477AC12","classic_bike","2023-09-05 20:23:56","2023-09-05 20:37:08","Franklin St & Chicago Ave","13017","Desplaines St & Jackson Blvd","15539",41.896746973093805,-87.63566762208939,41.87811890091227,-87.64394760131836,"member"
"3FD6F1615E3BC58E","classic_bike","2023-09-23 09:26:58","2023-09-23 10:11:59","Lakefront Trail & Bryn Mawr Ave","15576","McClurg Ct & Ohio St","TA1306000029",41.98404411519213,-87.65228122472763,41.892592119709725,-87.61728912591934,"member"
"5A35F2024C2730AA","electric_bike","2023-09-05 19:32:54","2023-09-05 19:53:06","Western Ave & 21st St","13091","Kedzie Ave & 57th St","346",41.854108,-87.68589866666667,41.789944,-87.703233,"member"
"3AE42EB161A8B6E8","classic_bike","2023-09-13 16:38:11","2023-09-13 17:06:19","Southport Ave & Waveland Ave","13235","McClurg Ct & Ohio St","TA1306000029",41.94815,-87.66394,41.892592119709725,-87.61728912591934,"member"
"B38D41C3603B0269","classic_bike","2023-09-03 16:22:56","2023-09-03 16:32:02","Buckingham Fountain (Temp)","15541","Adler Planetarium","13431",41.868288,-87.623982,41.866095,-87.607267,"member"
"83F04A43B8B902DD","electric_bike","2023-09-28 16:02:29","2023-09-28 16:07:48","Wacker Dr & Washington St","KA1503000072","Desplaines St & Jackson Blvd","15539",41.884324166666666,-87.6336285,41.87811890091227,-87.64394760131836,"member"
"CA7A7860216BC925","electric_bike","2023-09-06 17:10:40","2023-09-06 17:20:18","LaSalle St & Illinois St","13430","Desplaines St & Jackson Blvd","15539",41.8907215,-87.63144116666666,41.87811890091227,-87.64394760131836,"member"
"34E68500B8A7537B","classic_bike","2023-09-18 17:49:21","2023-09-18 18:06:21","Wells St & Polk St","SL-011","Adler Planetarium","13431",41.872731542263075,-87.63351649045944,41.866095,-87.607267,"member"
"8AD38A850D86C58E","classic_bike","2023-09-09 18:15:17","2023-09-09 18:30:27","Clark St & Schiller St","TA1309000024","McClurg Ct & Ohio St","TA1306000029",41.907993,-87.631501,41.892592119709725,-87.61728912591934,"casual"
"1B5C53C095B55EDC","electric_bike","2023-09-27 07:44:31","2023-09-27 07:54:11","Halsted St & 21st St","13162","Desplaines St & Jackson Blvd","15539",41.853788018,-87.646495819,41.87811890091227,-87.64394760131836,"member"
"AF690E64B43E1223","classic_bike","2023-09-26 16:15:58","2023-09-26 16:50:26","Sheridan Rd & Montrose Ave","TA1307000107","McClurg Ct & Ohio St","TA1306000029",41.96167,-87.65464,41.892592119709725,-87.61728912591934,"member"
"365085A1830F0723","classic_bike","2023-09-07 14:23:38","2023-09-07 14:27:54","Aberdeen St & Jackson Blvd","13157","Desplaines St & Jackson Blvd","15539",41.87772613,-87.65478743,41.87811890091227,-87.64394760131836,"member"
"652299866543883D","electric_bike","2023-09-29 10:27:14","2023-09-29 10:38:05","Canal St & Jackson Blvd","13138","Indiana Ave & 26th St","TA1307000005",41.877202153,-87.639396667,41.845687,-87.622481,"member"
"66E18E07ABF92A3B","electric_bike","2023-09-02 12:07:43","2023-09-02 12:12:40","Western Ave & Fillmore St","644","Wood St & Taylor St (Temp)","13285",41.868689,-87.68623133333334,41.869265218438194,-87.67373085021973,"member"
"D72EBDD8F2A6A1DF","electric_bike","2023-09-14 08:35:26","2023-09-14 08:42:21","Michigan Ave & Pearson St","13034","Stetson Ave & South Water St","TA1308000029",41.897529244,-87.623559833,41.886835,-87.62232,"member"
"2208892DD88DE97F","electric_bike","2023-09-09 19:24:54","2023-09-09 19:42:42","Michigan Ave & Pearson St","13034","Desplaines St & Jackson Blvd","15539",41.89735183333333,-87.6239105,41.87811890091227,-87.64394760131836,"casual"
"AA436E2D668875B9","classic_bike","2023-09-07 20:13:26","2023-09-07 20:30:30","Daley Center Plaza","TA1306000010","Desplaines St & Jackson Blvd","15539",41.884241,-87.629634,41.87811890091227,-87.64394760131836,"casual"
"C3914A01FC67D43A","classic_bike","2023-09-02 12:40:09","2023-09-02 12:53:52","Daley Center Plaza","TA1306000010","McClurg Ct & Ohio St","TA1306000029",41.884241,-87.629634,41.892592119709725,-87.61728912591934,"member"
"4E2C1ECC6133EDDC","electric_bike","2023-09-23 18:32:46","2023-09-23 18:36:30","Western Ave & Fillmore St","644","Wood St & Taylor St (Temp)","13285",41.868667006,-87.686247349,41.869265218438194,-87.67373085021973,"member"
"C0164442795D03E6","classic_bike","2023-09-15 07:49:47","2023-09-15 08:09:34","Daley Center Plaza","TA1306000010","Desplaines St & Jackson Blvd","15539",41.884241,-87.629634,41.87811890091227,-87.64394760131836,"member"
"70137A787059956A","classic_bike","2023-09-23 15:27:33","2023-09-23 15:33:44","Western Ave & Fillmore St","644","Wood St & Taylor St (Temp)","13285",41.868563,-87.686234,41.869265218438194,-87.67373085021973,"member"
"23F3525DB0B0F774","classic_bike","2023-09-20 14:20:35","2023-09-20 14:24:32","Fairbanks St & Superior St","18003","McClurg Ct & Ohio St","TA1306000029",41.895748,-87.620104,41.892592119709725,-87.61728912591934,"member"
"C9A9D7043FC518E9","classic_bike","2023-09-05 09:03:35","2023-09-05 09:20:15","Clinton St & Jackson Blvd","638","Wood St & Taylor St (Temp)","13285",41.878316611830684,-87.64098107814789,41.869265218438194,-87.67373085021973,"member"
"A6183C8280A5058F","electric_bike","2023-09-13 13:13:44","2023-09-13 14:07:37","McCormick Place","TA1305000004","McClurg Ct & Ohio St","TA1306000029",41.851858258,-87.618838549,41.892592119709725,-87.61728912591934,"casual"
"E59FF9BB73BA8EDF","classic_bike","2023-09-01 14:01:40","2023-09-01 14:52:19","Dusable Harbor","KA1503000064","Indiana Ave & 26th St","TA1307000005",41.886976,-87.612813,41.845687,-87.622481,"casual"
"2A7B7CB98583648D","classic_bike","2023-09-05 17:38:52","2023-09-05 18:06:49","McCormick Place","TA1305000004","McClurg Ct & Ohio St","TA1306000029",41.8513751729,-87.6188346489,41.892592119709725,-87.61728912591934,"casual"
"4C0A4F54BB8544F4","classic_bike","2023-09-28 17:23:37","2023-09-28 17:36:01","Dearborn St & Erie St","13045","Desplaines St & Jackson Blvd","15539",41.893992,-87.629318,41.87811890091227,-87.64394760131836,"member"
"5C06A2C31E9CD94A","electric_bike","2023-09-14 12:23:40","2023-09-14 12:28:55","Kingsbury St & Kinzie St","KA1503000043","Desplaines St & Jackson Blvd","15539",41.889121333333335,-87.63865483333333,41.87811890091227,-87.64394760131836,"member"
"4E0C0B9EC076C4F4","electric_bike","2023-09-16 16:53:56","2023-09-16 17:01:10","Kingsbury St & Kinzie St","KA1503000043","Desplaines St & Jackson Blvd","15539",41.88915933333333,-87.63854216666667,41.87811890091227,-87.64394760131836,"member"
"EF37E7C9330B0A88","classic_bike","2023-09-12 16:37:16","2023-09-12 16:47:34","Clark St & Elm St","TA1307000039","McClurg Ct & Ohio St","TA1306000029",41.902973,-87.63128,41.892592119709725,-87.61728912591934,"member"
"0C21DEFD2F652066","electric_bike","2023-09-22 22:00:26","2023-09-22 22:21:13","Ashland Ave & Division St","13061","Kosciuszko Park","15643",41.903170347,-87.667757273,41.93058537138,-87.7237773635,"member"
"1635C72A580E81C6","electric_bike","2023-09-19 15:45:30","2023-09-19 15:53:19","Hermitage Ave & Polk St","13080","Desplaines St & Jackson Blvd","15539",41.871576548,-87.669979692,41.87811890091227,-87.64394760131836,"member"
"9F8C8FDE48E35170","classic_bike","2023-09-10 13:39:23","2023-09-10 13:45:08","Ogden Ave & Roosevelt Rd","KA1504000101","Wood St & Taylor St (Temp)","13285",41.86650148316,-87.68469707,41.869265218438194,-87.67373085021973,"casual"
"AF3B960323E52ED5","classic_bike","2023-09-05 13:39:01","2023-09-05 13:44:08","Ogden Ave & Roosevelt Rd","KA1504000101","Wood St & Taylor St (Temp)","13285",41.86650148316,-87.68469707,41.869265218438194,-87.67373085021973,"member"
"1A3D570A362FC758","classic_bike","2023-09-25 19:31:01","2023-09-25 19:33:42","Woodlawn Ave & 58th St","22002","Harper Ave & 59th St","KA1503000070",41.789381,-87.596479,41.78794281287,-87.5883151702,"member"
"614307363149E5C6","electric_bike","2023-09-15 09:42:22","2023-09-15 09:50:45","Peoria St & Jackson Blvd","13158","Wood St & Taylor St (Temp)","13285",41.877545476,-87.649461865,41.869265218438194,-87.67373085021973,"member"
"B0D62D2232BED291","classic_bike","2023-09-15 18:04:00","2023-09-15 18:24:34","Larrabee St & Menomonee St","TA1306000007","McClurg Ct & Ohio St","TA1306000029",41.91468,-87.64332,41.892592119709725,-87.61728912591934,"member"
"6828134C16A41E97","classic_bike","2023-09-27 07:37:38","2023-09-27 07:57:18","Larrabee St & Menomonee St","TA1306000007","McClurg Ct & Ohio St","TA1306000029",41.91468,-87.64332,41.892592119709725,-87.61728912591934,"member"
"9A7684FE416E53E1","classic_bike","2023-09-07 11:24:41","2023-09-07 11:53:24","State St & 33rd St","13216","Indiana Ave & 26th St","TA1307000005",41.834734,-87.625813,41.845687,-87.622481,"member"
"C26E888379603A67","electric_bike","2023-09-07 08:44:36","2023-09-07 08:58:05","Damen Ave & Division St","13136","Desplaines St & Jackson Blvd","15539",41.903337666666665,-87.67851583333334,41.87811890091227,-87.64394760131836,"member"
"9718E200CEED419A","electric_bike","2023-09-12 12:09:11","2023-09-12 12:59:05","Millennium Park","13008","Adler Planetarium","13431",41.8812215,-87.624027,41.866095,-87.607267,"casual"
"7CDD8BB70FF1ECEA","classic_bike","2023-09-15 15:01:53","2023-09-15 15:03:20","Adler Planetarium","13431","Adler Planetarium","13431",41.866095,-87.607267,41.866095,-87.607267,"member"
"57AC2A0695CE32C7","classic_bike","2023-09-15 15:04:23","2023-09-15 15:37:49","Adler Planetarium","13431","Adler Planetarium","13431",41.866095,-87.607267,41.866095,-87.607267,"member"
"C73CAF36B4F7985F","classic_bike","2023-09-17 13:09:04","2023-09-17 13:37:38","Adler Planetarium","13431","Adler Planetarium","13431",41.866095,-87.607267,41.866095,-87.607267,"casual"
"394E634A01BC54C1","classic_bike","2023-09-10 19:41:51","2023-09-10 19:42:16","McClurg Ct & Ohio St","TA1306000029","McClurg Ct & Ohio St","TA1306000029",41.892592119709725,-87.61728912591934,41.892592119709725,-87.61728912591934,"casual"
"F1DCE1635CBD1FD7","classic_bike","2023-09-10 19:43:02","2023-09-10 20:14:07","McClurg Ct & Ohio St","TA1306000029","McClurg Ct & Ohio St","TA1306000029",41.892592119709725,-87.61728912591934,41.892592119709725,-87.61728912591934,"casual"
"08F9DC1564176826","classic_bike","2023-09-10 19:43:41","2023-09-10 20:14:49","McClurg Ct & Ohio St","TA1306000029","McClurg Ct & Ohio St","TA1306000029",41.892592119709725,-87.61728912591934,41.892592119709725,-87.61728912591934,"casual"
"14A0DF382C535604","classic_bike","2023-09-26 12:09:27","2023-09-26 12:41:20","Adler Planetarium","13431","McClurg Ct & Ohio St","TA1306000029",41.866095,-87.607267,41.892592119709725,-87.61728912591934,"casual"
"84D32F7691E74C67","classic_bike","2023-09-26 18:38:49","2023-09-26 20:14:05","Kosciuszko Park","15643","Kosciuszko Park","15643",41.93058537138,-87.7237773635,41.93058537138,-87.7237773635,"casual"
"6EEFB16396173C9E","electric_bike","2023-09-07 17:18:50","2023-09-07 17:48:59","Harper Ave & 59th St","KA1503000070","Harper Ave & 59th St","KA1503000070",41.787942052,-87.588284969,41.78794281287,-87.5883151702,"casual"
"C76A5FA26ADE7F5C","classic_bike","2023-09-07 08:39:20","2023-09-07 08:46:05","McClurg Ct & Ohio St","TA1306000029","Stetson Ave & South Water St","TA1308000029",41.892592119709725,-87.61728912591934,41.886835,-87.62232,"casual"
"3712C80CA9D52108","classic_bike","2023-09-07 16:58:36","2023-09-07 17:04:07","Stetson Ave & South Water St","TA1308000029","McClurg Ct & Ohio St","TA1306000029",41.886835,-87.62232,41.892592119709725,-87.61728912591934,"casual"
"761B13E55B103117","classic_bike","2023-09-21 11:38:12","2023-09-21 11:38:23","Kimball Ave & Belmont Ave","KA150400009X","Kimball Ave & Belmont Ave","KA150400009X",41.93939395344302,-87.71206766366959,41.93939395344302,-87.71206766366959,"casual"
"B3E03F8022EE4DD7","classic_bike","2023-09-21 10:19:32","2023-09-21 10:31:14","Kosciuszko Park","15643","Kosciuszko Park","15643",41.93058537138,-87.7237773635,41.93058537138,-87.7237773635,"casual"
"50ED60EFC90D254B","electric_bike","2023-09-21 14:16:37","2023-09-21 14:43:38","Stetson Ave & South Water St","TA1308000029","Stetson Ave & South Water St","TA1308000029",41.88678616666667,-87.62171516666666,41.886835,-87.62232,"casual"
"9C27A840B4F7A31E","classic_bike","2023-09-21 10:22:09","2023-09-21 10:32:03","Kosciuszko Park","15643","Kosciuszko Park","15643",41.93058537138,-87.7237773635,41.93058537138,-87.7237773635,"casual"
"4689C56F9276E810","electric_bike","2023-09-21 10:02:05","2023-09-21 10:14:53","Public Rack - Kedzie Ave & 61st Pl W","1039","Kedzie Ave & 57th St","346",41.781863,-87.70330766666666,41.789944,-87.703233,"casual"
"D587901B3D479EE9","classic_bike","2023-09-02 19:43:17","2023-09-02 21:21:03","Indiana Ave & 26th St","TA1307000005","Indiana Ave & 26th St","TA1307000005",41.845687,-87.622481,41.845687,-87.622481,"casual"
"94A83F353FBB7EA7","electric_bike","2023-09-17 23:01:21","2023-09-17 23:01:42","McClurg Ct & Ohio St","TA1306000029","McClurg Ct & Ohio St","TA1306000029",41.892417,-87.61729083333333,41.892592119709725,-87.61728912591934,"casual"
"C69514F90AF818E0","electric_bike","2023-09-17 23:03:13","2023-09-17 23:54:57","McClurg Ct & Ohio St","TA1306000029","McClurg Ct & Ohio St","TA1306000029",41.892311666666664,-87.61727883333333,41.892592119709725,-87.61728912591934,"casual"
"9ACE94EB249CFB38","classic_bike","2023-09-18 12:18:25","2023-09-18 13:02:12","Adler Planetarium","13431","Adler Planetarium","13431",41.866095,-87.607267,41.866095,-87.607267,"casual"
"0823BBFE2F07010D","classic_bike","2023-09-18 10:36:39","2023-09-18 11:00:02","Stetson Ave & South Water St","TA1308000029","Stetson Ave & South Water St","TA1308000029",41.886835,-87.62232,41.886835,-87.62232,"casual"
"384D1F4C4D42C53F","classic_bike","2023-09-02 14:09:14","2023-09-02 16:07:51","McClurg Ct & Ohio St","TA1306000029","Adler Planetarium","13431",41.892592119709725,-87.61728912591934,41.866095,-87.607267,"casual"
"CA857F8F7B893B7D","classic_bike","2023-09-02 18:28:13","2023-09-02 19:09:00","McClurg Ct & Ohio St","TA1306000029","McClurg Ct & Ohio St","TA1306000029",41.892592119709725,-87.61728912591934,41.892592119709725,-87.61728912591934,"casual"
"D5CBB17DDFD666FD","classic_bike","2023-09-02 17:40:03","2023-09-02 18:27:01","McClurg Ct & Ohio St","TA1306000029","McClurg Ct & Ohio St","TA1306000029",41.892592119709725,-87.61728912591934,41.892592119709725,-87.61728912591934,"casual"
"16C20F9DC53CC58B","classic_bike","2023-09-01 20:09:56","2023-09-01 21:26:43","Stetson Ave & South Water St","TA1308000029","Adler Planetarium","13431",41.886835,-87.62232,41.866095,-87.607267,"casual"
"A50CE8030E524403","electric_bike","2023-09-13 01:25:43","2023-09-13 01:25:56","Kedzie Ave & 57th St","346","Kedzie Ave & 57th St","346",41.789861679,-87.703088522,41.789944,-87.703233,"member"
"B74ACF52AC3DA588","classic_bike","2023-09-16 12:36:22","2023-09-16 13:12:30","Indiana Ave & 26th St","TA1307000005","Indiana Ave & 26th St","TA1307000005",41.845687,-87.622481,41.845687,-87.622481,"member"
"DFEA3BD78E011937","classic_bike","2023-09-02 18:38:48","2023-09-02 18:44:20","McClurg Ct & Ohio St","TA1306000029","McClurg Ct & Ohio St","TA1306000029",41.892592119709725,-87.61728912591934,41.892592119709725,-87.61728912591934,"member"
"56C5097C6FEDF7E9","classic_bike","2023-09-08 19:50:05","2023-09-08 19:56:00","Dearborn St & Adams St","TA1305000005","Stetson Ave & South Water St","TA1308000029",41.8793563587,-87.6297910363,41.886835,-87.62232,"member"
"E4D9141412F0D31B","electric_bike","2023-09-05 18:39:28","2023-09-05 18:46:07","Morgan St & Polk St","TA1307000130","Wood St & Taylor St (Temp)","13285",41.87206316666666,-87.65107233333333,41.869265218438194,-87.67373085021973,"member"
"014BE41456324AA8","classic_bike","2023-09-27 15:56:39","2023-09-27 16:06:40","Morgan St & Polk St","TA1307000130","Wood St & Taylor St (Temp)","13285",41.871737,-87.65103,41.869265218438194,-87.67373085021973,"member"
"C616230BB1C09BE1","classic_bike","2023-09-01 06:48:40","2023-09-01 07:03:46","Honore St & Division St","TA1305000034","Wood St & Taylor St (Temp)","13285",41.903119,-87.673935,41.869265218438194,-87.67373085021973,"member"
"A4EDEFFDCFC48DB6","electric_bike","2023-09-13 07:40:25","2023-09-13 07:44:21","Avers Ave & Belmont Ave","15640","Kimball Ave & Belmont Ave","KA150400009X",41.9394785,-87.72358766666666,41.93939395344302,-87.71206766366959,"member"
"73C9341BDF255878","classic_bike","2023-09-12 16:22:25","2023-09-12 16:27:36","Ellis Ave & 58th St","TA1309000011","Harper Ave & 59th St","KA1503000070",41.788746,-87.601334,41.78794281287,-87.5883151702,"member"
"19FD1DBAEB4F5C54","classic_bike","2023-09-17 14:03:00","2023-09-17 14:10:55","Shedd Aquarium","15544","Adler Planetarium","13431",41.86722595682,-87.6153553902,41.866095,-87.607267,"casual"
"A440B0EE9379BE49","classic_bike","2023-09-04 21:13:57","2023-09-04 21:20:34","Pine Grove Ave & Irving Park Rd","TA1308000022","Ashland Ave & Belle Plaine Ave","13249",41.954383,-87.648043,41.956057,-87.668835,"member"
"1ECB27E5C89D55E1","classic_bike","2023-09-15 10:57:32","2023-09-15 11:11:37","Sedgwick St & Huron St","TA1307000062","Stetson Ave & South Water St","TA1308000029",41.894666,-87.638437,41.886835,-87.62232,"member"
"87C79C281B4CBB9D","electric_bike","2023-09-22 15:31:06","2023-09-22 15:58:12","Pine Grove Ave & Irving Park Rd","TA1308000022","Stetson Ave & South Water St","TA1308000029",41.95442216666667,-87.6481475,41.886835,-87.62232,"member"
"1EB6F1528005A4FA","electric_bike","2023-09-27 18:25:43","2023-09-27 18:35:43","Paulina St & Flournoy St","KA1504000104","Desplaines St & Jackson Blvd","15539",41.873095,-87.66892016666667,41.87811890091227,-87.64394760131836,"member"
"F5F41CDB1175F5DB","electric_bike","2023-09-22 19:17:22","2023-09-22 19:33:10","Dayton St & North Ave","13058","McClurg Ct & Ohio St","TA1306000029",41.910648823,-87.64945519,41.892592119709725,-87.61728912591934,"casual"
"240C2362430A4889","classic_bike","2023-09-21 19:18:41","2023-09-21 19:29:09","Ada St & Washington Blvd","13353","Desplaines St & Jackson Blvd","15539",41.88283,-87.661206,41.87811890091227,-87.64394760131836,"member"
"3A43B5627A9144E7","electric_bike","2023-09-21 12:04:15","2023-09-21 12:13:21","Delano Ct & Roosevelt Rd","KA1706005007","Wood St & Taylor St (Temp)","13285",41.86748898,-87.632265091,41.869265218438194,-87.67373085021973,"member"
"8BDFFC27E8EB672A","classic_bike","2023-09-09 16:30:19","2023-09-09 16:52:48","Field Museum","13029","McClurg Ct & Ohio St","TA1306000029",41.865312,-87.617867,41.892592119709725,-87.61728912591934,"member"
"23CDF73CF5F89578","classic_bike","2023-09-23 16:33:08","2023-09-23 17:12:26","Michigan Ave & Ida B Wells Dr","TA1305000010","Adler Planetarium","13431",41.876243,-87.624426,41.866095,-87.607267,"casual"
"9E892BD3887A8FA5","classic_bike","2023-09-23 15:06:24","2023-09-23 15:20:58","Damen Ave & Foster Ave","KA1504000149","Ashland Ave & Belle Plaine Ave","13249",41.97561480459,-87.6794590387,41.956057,-87.668835,"casual"
"E855CF1CBF9D59C3","classic_bike","2023-09-03 08:28:45","2023-09-03 08:44:41","Franklin St & Jackson Blvd","TA1305000025","Stetson Ave & South Water St","TA1308000029",41.8777079559,-87.6353211408,41.886835,-87.62232,"casual"
"5E49792F6B0D8C9C","classic_bike","2023-09-23 15:06:09","2023-09-23 15:19:50","Damen Ave & Foster Ave","KA1504000149","Ashland Ave & Belle Plaine Ave","13249",41.97561480459,-87.6794590387,41.956057,-87.668835,"casual"
"5E0A0C8EF22A0754","classic_bike","2023-09-07 12:18:04","2023-09-07 12:28:40","Damen Ave & Foster Ave","KA1504000149","Ashland Ave & Belle Plaine Ave","13249",41.97561480459,-87.6794590387,41.956057,-87.668835,"member"
"0774FD60F5423307","electric_bike","2023-09-12 04:49:58","2023-09-12 04:55:54","Desplaines St & Kinzie St","TA1306000003","Stetson Ave & South Water St","TA1308000029",41.888632774,-87.644449234,41.886835,-87.62232,"casual"
"110E5260BF49934D","electric_bike","2023-09-29 19:46:03","2023-09-29 19:53:36","Wells St & Hubbard St","TA1307000151","McClurg Ct & Ohio St","TA1306000029",41.8898785,-87.63418666666666,41.892592119709725,-87.61728912591934,"member"
"05209B8DD0B71DC3","classic_bike","2023-09-22 18:17:06","2023-09-22 18:28:59","Halsted St & Archer Ave","TA1308000013","Indiana Ave & 26th St","TA1307000005",41.847203,-87.646795,41.845687,-87.622481,"member"
"AE1ECBD303D02651","electric_bike","2023-09-18 16:13:29","2023-09-18 16:21:09","Clinton St & Washington Blvd","WL-012","Stetson Ave & South Water St","TA1308000029",41.883606195,-87.641396403,41.886835,-87.62232,"member"
"BDB43D195026DFB8","classic_bike","2023-09-30 07:27:38","2023-09-30 07:30:37","Wabash Ave & 16th St","SL-012","Wabash Ave & Roosevelt Rd","TA1305000002",41.860384,-87.625813,41.867227,-87.625961,"member"
"976547777E247348","classic_bike","2023-09-03 06:38:22","2023-09-03 06:43:47","Wabash Ave & 16th St","SL-012","Wabash Ave & Roosevelt Rd","TA1305000002",41.860384,-87.625813,41.867227,-87.625961,"member"
"F62E3A7DFA958D49","classic_bike","2023-09-13 20:00:37","2023-09-13 20:25:03","Cherry Ave & Blackhawk St","18069","Clark St & Armitage Ave","13146",41.907221,-87.655618,41.918306,-87.636282,"member"
"D79FB42A03D365D5","classic_bike","2023-09-17 16:09:51","2023-09-17 16:25:26","Southport Ave & Wrightwood Ave","TA1307000113","Halsted St & Roscoe St","TA1309000025",41.928773,-87.663913,41.94367,-87.64895,"casual"
"B87E6B5466D39CC0","electric_bike","2023-09-28 18:46:07","2023-09-28 18:50:53","Clark St & Newport St","632","Clark St & Wellington Ave","TA1307000136",41.944499373,-87.65476191,41.9364968219,-87.6475386582,"member"
"7D750FC6340072C3","classic_bike","2023-09-28 08:14:09","2023-09-28 08:30:34","Canal St & Jackson Blvd","13138","Rush St & Hubbard St","KA1503000044",41.877245,-87.639366,41.890173,-87.626185,"member"
"176E42B19FEDF219","electric_bike","2023-09-29 11:53:14","2023-09-29 12:06:20","Aberdeen St & Monroe St","13156","Rush St & Hubbard St","KA1503000044",41.88039716666667,-87.655535,41.890173,-87.626185,"member"
"6A7005CC067D40CA","classic_bike","2023-09-07 09:42:07","2023-09-07 10:06:19","Ashland Ave & Division St","13061","Halsted St & Roscoe St","TA1309000025",41.90345,-87.667747,41.94367,-87.64895,"member"
"978C444AB6342922","classic_bike","2023-09-23 17:44:13","2023-09-23 17:54:15","May St & Taylor St","13160","Aberdeen St & Jackson Blvd","13157",41.8694821,-87.6554864,41.87772613,-87.65478743,"member"
"09C91333BEC054BC","classic_bike","2023-09-29 11:32:51","2023-09-29 11:36:45","Clark St & Wrightwood Ave","TA1305000014","Clark St & Wellington Ave","TA1307000136",41.929546,-87.643118,41.9364968219,-87.6475386582,"member"
"4CEFBE509A89706D","electric_bike","2023-09-23 23:09:45","2023-09-23 23:15:21","Southport Ave & Belmont Ave","13229","Halsted St & Roscoe St","TA1309000025",41.939457,-87.66377583333333,41.94367,-87.64895,"member"
"8708117821EF41F9","classic_bike","2023-09-27 21:53:54","2023-09-27 22:05:37","Desplaines St & Kinzie St","TA1306000003","Walsh Park","18067",41.888716036,-87.6444478533,41.91461,-87.667968,"member"
"4EB4604D6CA7A581","electric_bike","2023-09-03 10:53:25","2023-09-03 11:14:46","Broadway & Granville Ave","15571","Halsted St & Roscoe St","TA1309000025",41.994764333333336,-87.66026616666667,41.94367,-87.64895,"member"
"04FCDC4FDE936F84","electric_bike","2023-09-22 10:14:20","2023-09-22 10:36:45","Broadway & Granville Ave","15571","Halsted St & Roscoe St","TA1309000025",41.99468683333333,-87.66036383333334,41.94367,-87.64895,"member"
"C30B0A304A06F8AE","electric_bike","2023-09-22 14:40:19","2023-09-22 15:03:10","Wacker Dr & Washington St","KA1503000072","Clark St & Armitage Ave","13146",41.883331166666665,-87.6371355,41.918306,-87.636282,"casual"
"016C47020AA6A5F0","classic_bike","2023-09-09 01:44:22","2023-09-09 01:53:13","Southport Ave & Waveland Ave","13235","Halsted St & Roscoe St","TA1309000025",41.94815,-87.66394,41.94367,-87.64895,"member"
"88C5C1D4066174EE","classic_bike","2023-09-01 17:20:31","2023-09-01 17:32:45","Southport Ave & Waveland Ave","13235","Clark St & Wellington Ave","TA1307000136",41.94815,-87.66394,41.9364968219,-87.6475386582,"member"
"5FFF5C3D83CADFCB","classic_bike","2023-09-16 21:34:04","2023-09-16 21:40:41","Southport Ave & Waveland Ave","13235","Halsted St & Roscoe St","TA1309000025",41.94815,-87.66394,41.94367,-87.64895,"member"
"E576B764E9233217","classic_bike","2023-09-12 17:48:28","2023-09-12 17:56:26","DuSable Lake Shore Dr & North Blvd","LF-005","Clark St & Armitage Ave","13146",41.911722,-87.626804,41.918306,-87.636282,"casual"
"681A15D130FA319A","classic_bike","2023-09-12 17:18:34","2023-09-12 17:24:54","Clinton St & 18th St","TA1307000044","Wentworth Ave & Cermak Rd*","chargingstx07",41.85795,-87.640826,41.853214418519656,-87.63187229633331,"casual"
"E17217234E94664B","electric_bike","2023-09-12 12:25:45","2023-09-12 12:33:15","Clinton St & 18th St","TA1307000044","Wentworth Ave & Cermak Rd*","chargingstx07",41.857966,-87.64083016666666,41.853214418519656,-87.63187229633331,"casual"
"5C30B9B94BEF67CF","classic_bike","2023-09-05 16:41:01","2023-09-05 17:12:10","Damen Ave & Grand Ave","TA1308000006","Clark St & Armitage Ave","13146",41.892394452962705,-87.67688512802124,41.918306,-87.636282,"member"
"6FF51D571BC2726B","classic_bike","2023-09-07 16:16:23","2023-09-07 16:30:10","Damen Ave & Grand Ave","TA1308000006","Walsh Park","18067",41.892394452962705,-87.67688512802124,41.91461,-87.667968,"member"
"1BD4B3F0BE21F59D","classic_bike","2023-09-01 17:04:50","2023-09-01 17:24:26","Sheridan Rd & Irving Park Rd","13063","Clark St & Wellington Ave","TA1307000136",41.954245,-87.654406,41.9364968219,-87.6475386582,"member"
"3DC461BB2D9D6464","classic_bike","2023-09-24 14:50:55","2023-09-24 15:02:24","Michigan Ave & Oak St","13042","Clark St & Armitage Ave","13146",41.90096039,-87.62377664,41.918306,-87.636282,"member"
"B7291C89B5480F00","classic_bike","2023-09-22 18:06:37","2023-09-22 18:29:03","Daley Center Plaza","TA1306000010","Wentworth Ave & Cermak Rd*","chargingstx07",41.884241,-87.629634,41.853214418519656,-87.63187229633331,"member"
"1282760C3BB7F687","classic_bike","2023-09-21 16:26:40","2023-09-21 16:52:28","Daley Center Plaza","TA1306000010","Clark St & Wellington Ave","TA1307000136",41.884241,-87.629634,41.9364968219,-87.6475386582,"member"
"4B75DDB450B10BC4","classic_bike","2023-09-21 19:16:14","2023-09-21 19:31:10","Southport Ave & Roscoe St","13071","Clark St & Wellington Ave","TA1307000136",41.943739,-87.66402,41.9364968219,-87.6475386582,"member"
"BB4C669154058A74","classic_bike","2023-09-17 17:53:05","2023-09-17 18:06:39","Southport Ave & Roscoe St","13071","Sheridan Rd & Montrose Ave","TA1307000107",41.943739,-87.66402,41.96167,-87.65464,"member"
"4060B0BBD0B25656","classic_bike","2023-09-04 14:58:38","2023-09-04 15:09:12","Southport Ave & Roscoe St","13071","Clark St & Wellington Ave","TA1307000136",41.943739,-87.66402,41.9364968219,-87.6475386582,"member"
"A7C0299EB4201D62","classic_bike","2023-09-04 12:16:32","2023-09-04 13:32:46","Clarendon Ave & Junior Ter","13389","Wentworth Ave & Cermak Rd*","chargingstx07",41.961004,-87.649603,41.853214418519656,-87.63187229633331,"casual"
"1C9DFB2DE1ED6919","classic_bike","2023-09-03 19:25:11","2023-09-03 19:44:52","Clarendon Ave & Junior Ter","13389","Sheridan Rd & Montrose Ave","TA1307000107",41.961004,-87.649603,41.96167,-87.65464,"member"
"9AB96662D51E2149","classic_bike","2023-09-12 18:01:26","2023-09-12 18:40:49","Clark St & Randolph St","TA1305000030","Sheridan Rd & Montrose Ave","TA1307000107",41.884576228,-87.63188991,41.96167,-87.65464,"member"
"4E8B7C3A0AE7C4FC","classic_bike","2023-09-16 14:09:42","2023-09-16 14:19:52","Southport Ave & Clark St","TA1308000047","Halsted St & Roscoe St","TA1309000025",41.957081,-87.664199,41.94367,-87.64895,"member"
"F178CFCC0B029A06","classic_bike","2023-09-26 14:34:28","2023-09-26 15:00:22","Clinton St & Madison St","TA1305000032","Clark St & Wellington Ave","TA1307000136",41.882751965685614,-87.64119029045105,41.9364968219,-87.6475386582,"casual"
"C75B888A0A2F9CBE","classic_bike","2023-09-09 10:43:18","2023-09-09 11:39:58","DuSable Lake Shore Dr & Monroe St","13300","Clark St & Armitage Ave","13146",41.880958,-87.616743,41.918306,-87.636282,"casual"
"345BC1303B3A3F66","electric_bike","2023-09-30 17:04:04","2023-09-30 17:22:02","Winthrop Ave & Lawrence Ave","TA1308000021","Manor Ave & Leland Ave","KA1504000127",41.96889933333333,-87.65766216666667,41.965875,-87.700825,"member"
"EEA1A28E7BDA9539","electric_bike","2023-09-20 10:50:09","2023-09-20 11:08:29","Archer (Damen) Ave & 37th St","18022","Wentworth Ave & Cermak Rd*","chargingstx07",41.82671116666667,-87.68320133333333,41.853214418519656,-87.63187229633331,"member"
"54D4417F1697771A","classic_bike","2023-09-16 16:40:26","2023-09-16 17:06:26","State St & Randolph St","TA1305000029","Clark St & Armitage Ave","13146",41.88462107257936,-87.62783423066139,41.918306,-87.636282,"member"
"2A12E45571E1E3AD","classic_bike","2023-09-22 18:37:11","2023-09-22 18:59:47","Clark St & Schreiber Ave","KA1504000156","Sheridan Rd & Montrose Ave","TA1307000107",41.999897,-87.670073,41.96167,-87.65464,"member"
"81E74ED82FE8B732","electric_bike","2023-09-05 15:27:27","2023-09-05 15:38:00","Wabash Ave & Grand Ave","TA1307000117","Clark St & Armitage Ave","13146",41.891474962,-87.627001762,41.918306,-87.636282,"member"
"D10F52F2A088136D","classic_bike","2023-09-02 18:35:44","2023-09-02 19:01:06","Adler Planetarium","13431","Wentworth Ave & Cermak Rd*","chargingstx07",41.866095,-87.607267,41.853214418519656,-87.63187229633331,"casual"
"51C4FE5A68AD89B0","classic_bike","2023-09-22 15:20:08","2023-09-22 15:45:03","McClurg Ct & Ohio St","TA1306000029","Clark St & Armitage Ave","13146",41.892592119709725,-87.61728912591934,41.918306,-87.636282,"casual"
"01F91E4A896F7196","electric_bike","2023-09-03 09:49:57","2023-09-03 10:35:29","Walsh Park","18067","Walsh Park","18067",41.91451966666666,-87.66796733333334,41.91461,-87.667968,"casual"
"6017F7ED13199FAD","classic_bike","2023-09-04 12:54:28","2023-09-04 13:03:18","Clark St & Armitage Ave","13146","Clark St & Wellington Ave","TA1307000136",41.918306,-87.636282,41.9364968219,-87.6475386582,"member"
"A1F92B37DB9AD940","classic_bike","2023-09-21 18:17:14","2023-09-21 18:27:54","Sheridan Rd & Montrose Ave","TA1307000107","Halsted St & Roscoe St","TA1309000025",41.96167,-87.65464,41.94367,-87.64895,"member"
"D6D6E92BE4CA01DF","classic_bike","2023-09-29 19:34:43","2023-09-29 19:39:13","Halsted St & Roscoe St","TA1309000025","Clark St & Wellington Ave","TA1307000136",41.94367,-87.64895,41.9364968219,-87.6475386582,"member"
"45F058D7F3D5E037","classic_bike","2023-09-22 23:43:07","2023-09-22 23:44:25","Walsh Park","18067","Walsh Park","18067",41.91461,-87.667968,41.91461,-87.667968,"casual"
"F19AAB6EFA9FDBDF","classic_bike","2023-09-23 14:10:49","2023-09-23 16:43:53","Clark St & Armitage Ave","13146","Clark St & Armitage Ave","13146",41.918306,-87.636282,41.918306,-87.636282,"casual"
"3AF769A3435108BB","classic_bike","2023-09-04 17:30:57","2023-09-04 18:46:18","Aberdeen St & Jackson Blvd","13157","Aberdeen St & Jackson Blvd","13157",41.87772613,-87.65478743,41.87772613,-87.65478743,"casual"
"B6360D144D8E3A69","electric_bike","2023-09-10 19:14:09","2023-09-10 19:15:17","Halsted St & Roscoe St","TA1309000025","Halsted St & Roscoe St","TA1309000025",41.94368633333333,-87.64895566666667,41.94367,-87.64895,"casual"
"E2EA9B9BE0D72C96","electric_bike","2023-09-08 16:11:38","2023-09-08 16:12:50","Halsted St & Roscoe St","TA1309000025","Halsted St & Roscoe St","TA1309000025",41.943668723,-87.648920894,41.94367,-87.64895,"casual"
"8A0B908909A279D5","electric_bike","2023-09-03 09:35:39","2023-09-03 09:39:02","Clark St & Armitage Ave","13146","Clark St & Armitage Ave","13146",41.918296833333336,-87.63636716666667,41.918306,-87.636282,"casual"
"71D2C5D70FCE0EA9","classic_bike","2023-09-03 01:19:48","2023-09-03 01:21:23","Clark St & Armitage Ave","13146","Clark St & Armitage Ave","13146",41.918306,-87.636282,41.918306,-87.636282,"casual"
"53FD7954194F13D3","electric_bike","2023-09-01 18:13:22","2023-09-01 18:50:58","Clark St & Armitage Ave","13146","Clark St & Armitage Ave","13146",41.9183245,-87.63632983333333,41.918306,-87.636282,"casual"
"D8D00A1C5798B462","electric_bike","2023-09-01 18:31:31","2023-09-01 18:39:03","Clark St & Armitage Ave","13146","Clark St & Wellington Ave","TA1307000136",41.91833316666666,-87.6363625,41.9364968219,-87.6475386582,"casual"
"BE741F107A95991D","classic_bike","2023-09-01 15:34:32","2023-09-01 16:21:52","Halsted St & Roscoe St","TA1309000025","Halsted St & Roscoe St","TA1309000025",41.94367,-87.64895,41.94367,-87.64895,"casual"
"D76CE6ED8D05B8CE","electric_bike","2023-09-20 14:09:23","2023-09-20 14:10:07","Walsh Park","18067","Walsh Park","18067",41.914551735,-87.668022394,41.91461,-87.667968,"member"
"01DBE76129CFE1A0","classic_bike","2023-09-23 10:27:38","2023-09-23 10:37:44","Clark St & Armitage Ave","13146","Clark St & Wellington Ave","TA1307000136",41.918306,-87.636282,41.9364968219,-87.6475386582,"member"
"7E6CE91EDAF025EC","electric_bike","2023-09-06 10:49:58","2023-09-06 10:50:57","Clark St & Armitage Ave","13146","Clark St & Armitage Ave","13146",41.918200254,-87.636213541,41.918306,-87.636282,"member"
"D9ABADE4C27FE2DE","classic_bike","2023-09-13 12:40:36","2023-09-13 12:55:03","Clinton St & Roosevelt Rd","WL-008","Wentworth Ave & Cermak Rd*","chargingstx07",41.8671177825,-87.6410879593,41.853214418519656,-87.63187229633331,"member"
"AC18402DA10C5B7A","classic_bike","2023-09-27 07:18:10","2023-09-27 07:59:39","Western Ave & Leland Ave","TA1307000140","Rush St & Hubbard St","KA1503000044",41.966399801840986,-87.68870428204536,41.890173,-87.626185,"member"
"03B9262C8F57ABD3","classic_bike","2023-09-27 16:43:49","2023-09-27 17:05:35","Western Ave & Leland Ave","TA1307000140","Sheridan Rd & Montrose Ave","TA1307000107",41.966399801840986,-87.68870428204536,41.96167,-87.65464,"member"
"2EB6EBC2BEB507A5","classic_bike","2023-09-20 23:44:36","2023-09-20 23:46:20","Sheffield Ave & Wellington Ave","TA1307000052","Clark St & Wellington Ave","TA1307000136",41.9362534831413,-87.65266209840775,41.9364968219,-87.6475386582,"member"
"15C21D23B4419CF8","classic_bike","2023-09-18 19:14:22","2023-09-18 19:20:58","Western Ave & Leland Ave","TA1307000140","Manor Ave & Leland Ave","KA1504000127",41.966399801840986,-87.68870428204536,41.965875,-87.700825,"member"
"D7659B626BA1322B","electric_bike","2023-09-24 07:00:46","2023-09-24 07:21:54","63rd St Beach","15491","Public Rack - Lake Shore Dr & Hayes Dr","952",41.780961633,-87.576338649,41.780581,-87.574562,"member"
"7B53485452AF668D","classic_bike","2023-09-05 14:59:08","2023-09-05 15:04:43","Ogden Ave & Congress Pkwy","13081","Aberdeen St & Jackson Blvd","13157",41.87501,-87.67328,41.87772613,-87.65478743,"member"
"1CF2C070B6321FDC","classic_bike","2023-09-10 15:15:23","2023-09-10 15:20:06","Damen Ave & Cortland St","13133","Walsh Park","18067",41.915983,-87.677335,41.91461,-87.667968,"member"
"7CD62D785B240884","classic_bike","2023-09-18 18:54:25","2023-09-18 18:59:56","Sheffield Ave & Wellington Ave","TA1307000052","Halsted St & Roscoe St","TA1309000025",41.9362534831413,-87.65266209840775,41.94367,-87.64895,"member"
"BF808BD8967A150C","electric_bike","2023-09-28 17:29:35","2023-09-28 17:37:02","Pulaski Rd & 51st St","343","Public Rack - Pulaski Rd & 44th St","833",41.800439596,-87.724816918,41.8129,-87.7225,"casual"
"9F978587B6910428","classic_bike","2023-09-30 12:06:01","2023-09-30 12:14:12","DuSable Lake Shore Dr & Diversey Pkwy","TA1309000039","Halsted St & Roscoe St","TA1309000025",41.932588,-87.636427,41.94367,-87.64895,"member"
"56EEE0AE77F6FBF2","electric_bike","2023-09-19 15:53:01","2023-09-19 16:01:47","Morgan St & Polk St","TA1307000130","Aberdeen St & Jackson Blvd","13157",41.871954,-87.65101116666666,41.87772613,-87.65478743,"member"
"F32892B477CBE633","classic_bike","2023-09-07 18:25:08","2023-09-07 18:51:58","Elston Ave & Wabansia Ave","TA1309000032","Honore St & Division St","TA1305000034",41.912919,-87.664169,41.903119,-87.673935,"member"
"3102143808DC3412","classic_bike","2023-09-28 18:50:03","2023-09-28 19:03:31","Desplaines St & Randolph St","15535","Franklin St & Monroe St","TA1309000007",41.883703,-87.644238,41.880317,-87.635185,"member"
"FFE7616FFD696858","electric_bike","2023-09-23 13:52:49","2023-09-23 13:52:55","Halsted St & 104th St","20125","Halsted St & 104th St","20125",41.705184833333334,-87.64239133333334,41.70513978893236,-87.6424241065979,"member"
"234175706963F6B1","electric_bike","2023-09-17 18:01:29","2023-09-17 18:02:15","Stave St & Armitage Ave","13266","Stave St & Armitage Ave","13266",41.917729139,-87.69151628,41.917741,-87.691392,"member"
"8445DA5080EE82F5","electric_bike","2023-09-05 13:58:23","2023-09-05 13:59:26","Stave St & Armitage Ave","13266","Stave St & Armitage Ave","13266",41.917731833333335,-87.691517,41.917741,-87.691392,"member"
"6796FC2BD9FD563B","classic_bike","2023-09-08 11:07:04","2023-09-08 11:49:19","LaSalle St & Illinois St","13430","Franklin St & Monroe St","TA1309000007",41.890762,-87.631697,41.880317,-87.635185,"member"
"0C04EFB9FF3AA05D","classic_bike","2023-09-05 16:45:27","2023-09-05 16:55:31","Desplaines St & Kinzie St","TA1306000003","State St & Randolph St","TA1305000029",41.888716036,-87.6444478533,41.88462107257936,-87.62783423066139,"member"
"9494CCD5DBD8D26A","classic_bike","2023-09-22 13:55:02","2023-09-22 14:36:01","Michigan Ave & Pearson St","13034","State St & Randolph St","TA1305000029",41.89766,-87.62351,41.88462107257936,-87.62783423066139,"casual"
"F80D5A04BB4B113D","classic_bike","2023-09-22 13:54:38","2023-09-22 14:35:56","Michigan Ave & Pearson St","13034","State St & Randolph St","TA1305000029",41.89766,-87.62351,41.88462107257936,-87.62783423066139,"casual"
"00919D23A4684F01","classic_bike","2023-09-25 15:56:03","2023-09-25 16:26:11","Western Ave & Fillmore St","644","Michigan Ave & Jackson Blvd","TA1309000002",41.868563,-87.686234,41.878005,-87.624144,"member"
"CB4FFC94D88996AD","electric_bike","2023-09-03 16:29:27","2023-09-03 17:22:30","Museum of Science and Industry","KA1503000074","Michigan Ave & Jackson Blvd","TA1309000002",41.791727901,-87.583955884,41.878005,-87.624144,"member"
"82B43F5F90BE221E","classic_bike","2023-09-28 05:57:18","2023-09-28 06:17:04","Clark St & Wrightwood Ave","TA1305000014","Franklin St & Monroe St","TA1309000007",41.929546,-87.643118,41.880317,-87.635185,"member"
"96DAC6D7D49F222E","electric_bike","2023-09-03 14:55:53","2023-09-03 15:02:27","Michigan Ave & 8th St","623","Michigan Ave & Jackson Blvd","TA1309000002",41.872404333333336,-87.62400766666667,41.878005,-87.624144,"casual"
"34070C0490FDC159","classic_bike","2023-09-13 10:37:40","2023-09-13 10:57:48","Milwaukee Ave & Grand Ave","13033","Stave St & Armitage Ave","13266",41.891578,-87.648384,41.917741,-87.691392,"member"
"A27D875DA1430C69","classic_bike","2023-09-25 16:50:27","2023-09-25 17:54:13","Buckingham Fountain (Columbus/Balbo)","15541","Michigan Ave & Jackson Blvd","TA1309000002",41.870748,-87.623997,41.878005,-87.624144,"casual"
"1DBAF187F77DFDA7","classic_bike","2023-09-14 06:07:47","2023-09-14 06:17:51","Clinton St & Jackson Blvd","638","State St & Randolph St","TA1305000029",41.878316611830684,-87.64098107814789,41.88462107257936,-87.62783423066139,"member"
"007B8A46D1DC500B","electric_bike","2023-09-12 07:53:39","2023-09-12 08:03:58","Larrabee St & Oak St","KA1504000116","Franklin St & Monroe St","TA1309000007",41.900265,-87.643043,41.880317,-87.635185,"member"
"9C71E55A621E16E9","classic_bike","2023-09-27 09:11:31","2023-09-27 09:19:31","Dearborn St & Erie St","13045","State St & Randolph St","TA1305000029",41.893992,-87.629318,41.88462107257936,-87.62783423066139,"member"
"4C1B0D04C9210BA5","classic_bike","2023-09-05 16:34:33","2023-09-05 16:53:17","Adler Planetarium","13431","Michigan Ave & Jackson Blvd","TA1309000002",41.866095,-87.607267,41.878005,-87.624144,"casual"
"2265825742A5EEA7","classic_bike","2023-09-05 16:34:28","2023-09-05 16:53:34","Adler Planetarium","13431","Michigan Ave & Jackson Blvd","TA1309000002",41.866095,-87.607267,41.878005,-87.624144,"casual"
"17F8F81785856C26","classic_bike","2023-09-05 16:35:54","2023-09-05 16:53:19","Adler Planetarium","13431","Michigan Ave & Jackson Blvd","TA1309000002",41.866095,-87.607267,41.878005,-87.624144,"casual"
"89ED8F143D300F49","classic_bike","2023-09-11 09:32:25","2023-09-11 09:45:39","Kosciuszko Park","15643","Stave St & Armitage Ave","13266",41.93058537138,-87.7237773635,41.917741,-87.691392,"casual"
"0D49DA2E8D2B4400","classic_bike","2023-09-29 08:22:25","2023-09-29 08:54:10","Adler Planetarium","13431","State St & Randolph St","TA1305000029",41.866095,-87.607267,41.88462107257936,-87.62783423066139,"casual"
"0E1E7860B4757A83","classic_bike","2023-09-29 11:44:19","2023-09-29 11:51:43","McClurg Ct & Ohio St","TA1306000029","State St & Randolph St","TA1305000029",41.892592119709725,-87.61728912591934,41.88462107257936,-87.62783423066139,"casual"
"198ABF298368BD59","electric_bike","2023-09-28 22:12:09","2023-09-28 22:18:24","Stetson Ave & South Water St","TA1308000029","State St & Randolph St","TA1305000029",41.8874259,-87.622196674,41.88462107257936,-87.62783423066139,"casual"
"C4FC9F309F2678C7","electric_bike","2023-09-18 14:13:49","2023-09-18 14:46:30","Adler Planetarium","13431","State St & Randolph St","TA1305000029",41.866150166666664,-87.607335,41.88462107257936,-87.62783423066139,"casual"
"28478216F4144F58","electric_bike","2023-09-22 20:29:23","2023-09-22 20:40:09","Adler Planetarium","13431","Michigan Ave & Jackson Blvd","TA1309000002",41.86607583333333,-87.6073795,41.878005,-87.624144,"member"
"A69E22700BD6EA7F","electric_bike","2023-09-19 17:38:02","2023-09-19 17:52:02","Indiana Ave & 26th St","TA1307000005","Michigan Ave & Jackson Blvd","TA1309000002",41.84570633333333,-87.62256833333333,41.878005,-87.624144,"member"
"D0965B0C4C1D176A","electric_bike","2023-09-25 17:23:37","2023-09-25 17:40:12","Carpenter St & Huron St","13196","State St & Randolph St","TA1305000029",41.894490123,-87.653425336,41.88462107257936,-87.62783423066139,"casual"
"4454AF5059CE62E0","classic_bike","2023-09-02 22:14:59","2023-09-02 22:58:10","DuSable Lake Shore Dr & Monroe St","13300","Michigan Ave & Jackson Blvd","TA1309000002",41.880958,-87.616743,41.878005,-87.624144,"casual"
"4AFAB0204E4569F8","classic_bike","2023-09-03 10:25:42","2023-09-03 11:08:37","DuSable Lake Shore Dr & Monroe St","13300","Michigan Ave & Jackson Blvd","TA1309000002",41.880958,-87.616743,41.878005,-87.624144,"casual"
"67FF1882C136275B","electric_bike","2023-09-09 08:32:32","2023-09-09 08:39:47","Franklin St & Lake St","TA1307000111","State St & Randolph St","TA1305000029",41.8858,-87.63573983333333,41.88462107257936,-87.62783423066139,"member"
"F83772BA0532184D","classic_bike","2023-09-03 01:05:45","2023-09-03 01:08:59","California Ave & Francis Pl","13259","Stave St & Armitage Ave","13266",41.91849115368695,-87.69742280244827,41.917741,-87.691392,"member"
"2F3C1844CEE875F1","classic_bike","2023-09-20 15:55:30","2023-09-20 16:01:36","Columbus Dr & Randolph St","13263","State St & Randolph St","TA1305000029",41.884728,-87.619521,41.88462107257936,-87.62783423066139,"member"
"5972D4115B954BF0","classic_bike","2023-09-16 13:43:33","2023-09-16 13:47:55","Columbus Dr & Randolph St","13263","State St & Randolph St","TA1305000029",41.884728,-87.619521,41.88462107257936,-87.62783423066139,"member"
"F5F091D40F05021A","electric_bike","2023-09-29 18:04:00","2023-09-29 18:08:40","Columbus Dr & Randolph St","13263","State St & Randolph St","TA1305000029",41.8845125,-87.61942,41.88462107257936,-87.62783423066139,"casual"
"F003914D311731E4","classic_bike","2023-09-26 07:59:07","2023-09-26 08:06:16","Aberdeen St & Randolph St","18062","Franklin St & Monroe St","TA1309000007",41.884114,-87.654264,41.880317,-87.635185,"member"
"E1BE819E24AEB987","classic_bike","2023-09-18 18:36:08","2023-09-18 18:49:09","Federal St & Polk St","SL-008","State St & Randolph St","TA1305000029",41.87207763285,-87.6295437729,41.88462107257936,-87.62783423066139,"member"
"BFDAAD8E163C1645","classic_bike","2023-09-01 11:15:03","2023-09-01 14:00:57","Benson Ave & Church St","596","State St & Randolph St","TA1305000029",42.048214,-87.683485,41.88462107257936,-87.62783423066139,"casual"
"47B415949D8E8D10","electric_bike","2023-09-22 06:09:12","2023-09-22 06:17:48","Clark St & Schiller St","TA1309000024","Franklin St & Monroe St","TA1309000007",41.90777116666667,-87.63179016666666,41.880317,-87.635185,"member"
"E276654A55B0D71F","classic_bike","2023-09-12 08:00:29","2023-09-12 08:04:53","Millennium Park","13008","State St & Randolph St","TA1305000029",41.8810317,-87.62408432,41.88462107257936,-87.62783423066139,"member"
"BACD2B84194DCD64","classic_bike","2023-09-03 08:00:34","2023-09-03 08:31:38","Millennium Park","13008","Michigan Ave & Jackson Blvd","TA1309000002",41.8810317,-87.62408432,41.878005,-87.624144,"casual"
"C711E42E5934500D","classic_bike","2023-09-03 07:54:34","2023-09-03 08:05:24","Millennium Park","13008","Michigan Ave & Jackson Blvd","TA1309000002",41.8810317,-87.62408432,41.878005,-87.624144,"casual"
"EC8B0D4805323F6D","electric_bike","2023-09-08 12:39:57","2023-09-08 12:48:34","Ada St & Washington Blvd","13353","Franklin St & Monroe St","TA1309000007",41.882806,-87.66117783333334,41.880317,-87.635185,"casual"
"3AC402DFC23AAB93","classic_bike","2023-09-09 18:16:06","2023-09-09 18:51:02","Eckhart Park","13289","Michigan Ave & Jackson Blvd","TA1309000002",41.89637337,-87.66098386,41.878005,-87.624144,"casual"
"510D949F415F5D76","classic_bike","2023-09-10 01:01:56","2023-09-10 01:14:51","Wells St & Institute Pl","22001","State St & Randolph St","TA1305000029",41.89737986072316,-87.63442039489746,41.88462107257936,-87.62783423066139,"member"
"648CE00EC9F816B1","classic_bike","2023-09-10 14:58:06","2023-09-10 15:22:24","Clark St & Randolph St","TA1305000030","State St & Randolph St","TA1305000029",41.884576228,-87.63188991,41.88462107257936,-87.62783423066139,"member"
"1884916A8E4823FE","classic_bike","2023-09-11 14:13:14","2023-09-11 14:21:29","Winchester Ave & Elston Ave","KA1504000140","Stave St & Armitage Ave","13266",41.92409085038,-87.6764600747,41.917741,-87.691392,"member"
"E508A72C2FB5135D","classic_bike","2023-09-10 12:30:42","2023-09-10 13:13:11","Pine Grove Ave & Irving Park Rd","TA1308000022","Michigan Ave & Jackson Blvd","TA1309000002",41.954383,-87.648043,41.878005,-87.624144,"member"
"C6C172AFFEDFE1E8","electric_bike","2023-09-16 07:45:52","2023-09-16 07:50:21","Damen Ave & Cortland St","13133","Stave St & Armitage Ave","13266",41.91598833333333,-87.677379,41.917741,-87.691392,"member"
"48DDC21522F47DC9","classic_bike","2023-09-13 07:53:51","2023-09-13 08:05:00","Rush St & Cedar St","KA1504000133","State St & Randolph St","TA1305000029",41.90230870122,-87.627690528,41.88462107257936,-87.62783423066139,"member"
"91BDE49908B9496F","electric_bike","2023-09-08 07:42:29","2023-09-08 07:52:52","Rush St & Cedar St","KA1504000133","State St & Randolph St","TA1305000029",41.90213766666667,-87.62820166666667,41.88462107257936,-87.62783423066139,"member"
"003E26457655F88F","classic_bike","2023-09-25 17:02:06","2023-09-25 17:10:01","Michigan Ave & 14th St","TA1307000124","Michigan Ave & Jackson Blvd","TA1309000002",41.864059,-87.623727,41.878005,-87.624144,"member"
"C2F30B45B11A379E","classic_bike","2023-09-22 09:03:31","2023-09-22 09:20:25","Clark St & Lincoln Ave","13179","Franklin St & Monroe St","TA1309000007",41.915689,-87.6346,41.880317,-87.635185,"member"
"175F8A8CED8FF286","classic_bike","2023-09-29 13:06:05","2023-09-29 13:20:08","Michigan Ave & 14th St","TA1307000124","Michigan Ave & Jackson Blvd","TA1309000002",41.864059,-87.623727,41.878005,-87.624144,"casual"
"BEC3AFB6C03A1F98","classic_bike","2023-09-12 12:21:06","2023-09-12 12:29:19","Clark St & 9th St (AMLI)","SL-009","Franklin St & Monroe St","TA1309000007",41.870816,-87.631246,41.880317,-87.635185,"casual"
"D20847692CB7A0FB","classic_bike","2023-09-27 16:32:29","2023-09-27 16:46:31","Aberdeen St & Jackson Blvd","13157","State St & Randolph St","TA1305000029",41.87772613,-87.65478743,41.88462107257936,-87.62783423066139,"member"
"49DFA4AF5148440C","classic_bike","2023-09-01 09:16:11","2023-09-01 09:28:07","Aberdeen St & Jackson Blvd","13157","State St & Randolph St","TA1305000029",41.87772613,-87.65478743,41.88462107257936,-87.62783423066139,"casual"
"6897399707FD994E","classic_bike","2023-09-18 09:25:22","2023-09-18 10:26:29","Woodlawn Ave & 58th St","22002","State St & Randolph St","TA1305000029",41.789381,-87.596479,41.88462107257936,-87.62783423066139,"casual"
"B465D9DA5D2DF47E","classic_bike","2023-09-02 12:55:34","2023-09-02 13:28:26","Indiana Ave & 31st St","TA1308000036","Michigan Ave & Jackson Blvd","TA1309000002",41.838842,-87.621857,41.878005,-87.624144,"casual"
"EB3EAB0C17ACC74F","electric_bike","2023-09-27 11:00:26","2023-09-27 11:09:52","Western Ave & Walton St","KA1504000103","Stave St & Armitage Ave","13266",41.89845316666667,-87.68665283333333,41.917741,-87.691392,"member"
"B1C711CE101422D7","electric_bike","2023-09-14 08:19:02","2023-09-14 08:31:34","Clybourn Ave & Division St","TA1307000115","Franklin St & Monroe St","TA1309000007",41.9046665,-87.64064116666667,41.880317,-87.635185,"member"
"079D8CC7E0288A79","classic_bike","2023-09-20 06:48:25","2023-09-20 07:26:32","Blackstone Ave & Hyde Park Blvd","13398","State St & Randolph St","TA1305000029",41.802562,-87.590368,41.88462107257936,-87.62783423066139,"member"
"81C07BE22CDCAAF3","electric_bike","2023-09-28 08:13:01","2023-09-28 08:22:25","Michigan Ave & 18th St","13150","Franklin St & Monroe St","TA1309000007",41.857802749,-87.624529958,41.880317,-87.635185,"member"
"554BA361BCCFF8CC","electric_bike","2023-09-14 08:32:43","2023-09-14 08:44:51","Elizabeth St & Fulton St","13197","Franklin St & Monroe St","TA1309000007",41.886574745,-87.659552455,41.880317,-87.635185,"member"
"30302452BC7CC6F0","electric_bike","2023-09-22 18:05:25","2023-09-22 18:21:54","N Shore Channel Trail & Argyle St","444","Public Rack - Milwaukee Ave & Haussen Ct","505",41.972187877,-87.70278883,41.937752,-87.721623,"member"
"B84819D16C053E43","electric_bike","2023-09-28 15:40:38","2023-09-28 15:55:33","MLK Jr Dr & 29th St","TA1307000139","Michigan Ave & Jackson Blvd","TA1309000002",41.84202075,-87.616972566,41.878005,-87.624144,"member"
"FF2BE3EDC9CAC442","classic_bike","2023-09-25 10:18:03","2023-09-25 10:26:40","Elizabeth St & Randolph St","23001","Franklin St & Monroe St","TA1309000007",41.884336,-87.658902,41.880317,-87.635185,"casual"
"B749CE08CC3C9127","electric_bike","2023-09-03 22:17:25","2023-09-03 22:23:26","Kedzie Ave & Milwaukee Ave","13085","Public Rack - Milwaukee Ave & Haussen Ct","505",41.929552555,-87.707878232,41.937752,-87.721623,"casual"
"976C2B2E7666B414","electric_bike","2023-09-13 08:20:31","2023-09-13 08:41:12","Morgan St & 31st St","TA1308000046","State St & Randolph St","TA1305000029",41.83781916666667,-87.651209,41.88462107257936,-87.62783423066139,"member"
"FAE4BC75A3D70736","electric_bike","2023-09-23 13:42:34","2023-09-23 13:48:16","Indiana Ave & Roosevelt Rd","SL-005","Michigan Ave & Jackson Blvd","TA1309000002",41.87175166666667,-87.62305633333334,41.878005,-87.624144,"member"
"AE3C4B35DCDB3ADC","classic_bike","2023-09-18 19:28:40","2023-09-18 19:40:42","Halsted St & Maxwell St","TA1309000001","Morgan St & Polk St","TA1307000130",41.864883,-87.647071,41.871737,-87.65103,"member"
"0A1492321D3D0846","classic_bike","2023-09-13 19:09:32","2023-09-13 19:18:55","Wolcott (Ravenswood) Ave & Montrose Ave","TA1307000144","Southport Ave & Irving Park Rd","TA1309000043",41.961406,-87.676169,41.954177,-87.664358,"casual"
"2BD6E70736232DBD","electric_bike","2023-09-12 09:29:10","2023-09-12 09:37:18","Sheridan Rd & Argyle St","13059","Southport Ave & Irving Park Rd","TA1309000043",41.973398333333336,-87.65464533333333,41.954177,-87.664358,"casual"
"8A600EB9075EB5D5","electric_bike","2023-09-12 20:26:47","2023-09-12 20:29:09","W Armitage Ave & N Sheffield Ave","20254.0","Sheffield Ave & Webster Ave","TA1309000033",41.91813466666667,-87.653605,41.92154,-87.653818,"member"
"8D72BEF62B0845DE","classic_bike","2023-09-05 08:48:55","2023-09-05 08:51:24","May St & Taylor St","13160","Morgan St & Polk St","TA1307000130",41.8694821,-87.6554864,41.871737,-87.65103,"member"
"4DAD409ECDC7E392","electric_bike","2023-09-13 13:59:32","2023-09-13 14:09:13","Ogden Ave & Roosevelt Rd","KA1504000101","Morgan St & Polk St","TA1307000130",41.86657016666667,-87.68447733333333,41.871737,-87.65103,"member"
"9711583DBD52CE44","electric_bike","2023-09-26 16:51:11","2023-09-26 16:53:34","May St & Taylor St","13160","Morgan St & Polk St","TA1307000130",41.869431496,-87.655481815,41.871737,-87.65103,"member"
"F21E582DC7138948","electric_bike","2023-09-25 19:21:16","2023-09-25 19:23:19","May St & Taylor St","13160","Morgan St & Polk St","TA1307000130",41.869442,-87.65549883333334,41.871737,-87.65103,"member"
"EB80B805CCCCAECB","electric_bike","2023-09-06 00:41:12","2023-09-06 00:59:08","Francisco Ave & Montrose Ave","446","Public Rack - Spaulding Ave & Evergreen Ave","513",41.961063,-87.70087416666667,41.905317,-87.709521,"member"
"A91E4B85DA17F2AD","electric_bike","2023-09-16 21:40:50","2023-09-16 22:42:53","Wabash Ave & Grand Ave","TA1307000117","Public Rack - Kostner Ave & Armitage Ave","866",41.89113366666667,-87.62676183333333,41.917211,-87.736136,"member"
"1110B79B7E4D6E89","classic_bike","2023-09-04 00:45:29","2023-09-04 00:53:24","Wabash Ave & Grand Ave","TA1307000117","Franklin St & Lake St","TA1307000111",41.891466,-87.626761,41.885837,-87.6355,"member"
"21D67245636AAAB1","classic_bike","2023-09-29 17:44:52","2023-09-29 17:50:09","Dearborn Pkwy & Delaware Pl","TA1307000128","Ritchie Ct & Banks St","KA1504000134",41.898969,-87.629912,41.906866,-87.626217,"member"
"8DEC356004B4B38D","classic_bike","2023-09-07 13:49:16","2023-09-07 14:39:08","State St & 33rd St","13216","Ritchie Ct & Banks St","KA1504000134",41.834734,-87.625813,41.906866,-87.626217,"member"
"BAFBFB7944700AB8","classic_bike","2023-09-20 16:33:59","2023-09-20 16:37:11","Southport Ave & Waveland Ave","13235","Southport Ave & Irving Park Rd","TA1309000043",41.94815,-87.66394,41.954177,-87.664358,"member"
"703EBDE88E6897EF","classic_bike","2023-09-01 10:51:48","2023-09-01 11:08:51","California Ave & North Ave","13258","Logan Blvd & Elston Ave","TA1308000031",41.910459,-87.698045,41.929465,-87.684158,"member"
"B79E5432A022A92A","classic_bike","2023-09-01 14:26:11","2023-09-01 14:30:16","Southport Ave & Waveland Ave","13235","Southport Ave & Irving Park Rd","TA1309000043",41.94815,-87.66394,41.954177,-87.664358,"member"
"C60D508038255577","classic_bike","2023-09-23 09:44:10","2023-09-23 09:46:49","Southport Ave & Waveland Ave","13235","Southport Ave & Irving Park Rd","TA1309000043",41.94815,-87.66394,41.954177,-87.664358,"member"
"47F0CF78C1989558","classic_bike","2023-09-05 10:56:35","2023-09-05 11:04:03","Loomis St & Lexington St","13332","Morgan St & Polk St","TA1307000130",41.87222873224032,-87.66136385500431,41.871737,-87.65103,"member"
"00A975535096F49C","classic_bike","2023-09-15 16:23:44","2023-09-15 16:30:16","Loomis St & Lexington St","13332","Morgan St & Polk St","TA1307000130",41.87222873224032,-87.66136385500431,41.871737,-87.65103,"member"
"F5E345B0FC17D524","electric_bike","2023-09-02 15:45:16","2023-09-02 15:48:20","Loomis St & Lexington St","13332","Morgan St & Polk St","TA1307000130",41.8721645,-87.66119633333334,41.871737,-87.65103,"member"
"BE615F4B1FE435B6","classic_bike","2023-09-27 15:12:58","2023-09-27 15:16:53","Loomis St & Lexington St","13332","Morgan St & Polk St","TA1307000130",41.87222873224032,-87.66136385500431,41.871737,-87.65103,"member"
"14CA927DF847CCB2","electric_bike","2023-09-30 09:44:54","2023-09-30 09:50:22","California Ave & Altgeld St","15646","Logan Blvd & Elston Ave","TA1308000031",41.9266485,-87.69771366666667,41.929465,-87.684158,"casual"
"0B596C5D79E74D22","classic_bike","2023-09-17 15:15:40","2023-09-17 15:25:20","Fairbanks St & Superior St","18003","Ritchie Ct & Banks St","KA1504000134",41.895748,-87.620104,41.906866,-87.626217,"casual"
"AAB6CE97D6D90216","classic_bike","2023-09-06 06:36:55","2023-09-06 06:43:57","Dearborn St & Erie St","13045","Franklin St & Lake St","TA1307000111",41.893992,-87.629318,41.885837,-87.6355,"casual"
"90597007934097B6","electric_bike","2023-09-13 19:39:54","2023-09-13 19:51:30","Elston Ave & Henderson St","433","Logan Blvd & Elston Ave","TA1308000031",41.941509247,-87.700894356,41.929465,-87.684158,"member"
"19569DD15FA4A21E","electric_bike","2023-09-09 15:11:58","2023-09-09 15:19:18","Wolcott Ave & Polk St","TA1309000064","Morgan St & Polk St","TA1307000130",41.8712825,-87.67360566666666,41.871737,-87.65103,"member"
"2C62117956EDF92D","classic_bike","2023-09-30 15:32:07","2023-09-30 15:41:37","Wolcott Ave & Polk St","TA1309000064","Morgan St & Polk St","TA1307000130",41.871262,-87.673688,41.871737,-87.65103,"member"
"419FFBD511E212E6","classic_bike","2023-09-30 11:27:29","2023-09-30 11:45:14","Western Ave & Winnebago Ave","13068","Sheffield Ave & Webster Ave","TA1309000033",41.91552,-87.687022,41.92154,-87.653818,"member"
